id,name,type,latitude,longitude,address,phone,operator,emergency,source
248420920,Kalaignar Karunanidhi Nagar,hospital,13.0386493,80.2052158,,,Hospital,no,OSM
248559397,Koyambedu,clinic,13.0720236,80.1980375,,,,no,OSM
248560797,Kasimedu,hospital,13.122775,80.2960584,,,,no,OSM
258978416,Amrit Hospital,hospital,13.0922007,80.2792912,,,,no,OSM
258978417,Vikram Hospital,hospital,13.0985007,80.2796178,,,,no,OSM
262452334,City Tower Hospitals,hospital,13.08438,80.2160862,,,,no,OSM
289486820,"Apollo Hospitals, Tondiarpet",hospital,13.1289367,80.2905623,,,Apollo Hospitals,no,OSM
295544111,K.H.M.Hospital,hospital,13.0844424,80.2130723,,,,no,OSM
295552091,Sundaram Medical Foundation,hospital,13.08217,80.2069819,,,,no,OSM
295552092,Sri Devi Speciality Hospial,hospital,13.0887983,80.1994692,,,,no,OSM
303590777,Corporation Hospital,hospital,13.0336624,80.2572467,,,,no,OSM
308811614,"Hindu Mission Health Services, Kanchipuram",hospital,12.9787682,80.1846471,,,,no,OSM
310015097,Military Hospital,hospital,13.0194622,80.1972947,,,,no,OSM
310504820,Goverment dental hospital & collage,hospital,13.0829605,80.281264,,,,no,OSM
310732936,Kilpauk Medical College,hospital,13.0785984,80.2433369,,,,no,OSM
310909754,Hariharan Hospital,hospital,12.9847145,80.1905906,,,,no,OSM
310910945,BM Hospital,hospital,12.9887616,80.1904116,5th Main Road,044-22670277,,no,OSM
311429396,K.F. Hospital,hospital,12.973463,80.1841397,,,,no,OSM
312000326,Cancer Institute,hospital,13.0061338,80.239884,,,,no,OSM
320275820,Govt Maternity Hospital,hospital,13.0720996,80.2589871,,,,no,OSM
320275824,Institute of Child Health,hospital,13.0735496,80.257025,,,,no,OSM
320275839,Institute of Obstetrics and Gynaecology dd,hospital,13.0735431,80.2591463,,,,no,OSM
364650995,MIOT International,hospital,13.0211808,80.1858412,"4/112, Mount Poonamalle High Rd, Sathya Nagar, Manapakkam, Chennai, Tamil Nadu 600089",044 4200 2288,,no,OSM
367795605,St. Thomas Hospital,hospital,13.0122733,80.196428,,,,no,OSM
370319221,Apollo Pharmacy,pharmacy,13.0645397,80.243327,,,,no,OSM
370967673,Unnamed,hospital,13.009781,80.1949734,,,,no,OSM
375668400,Venkataeswara Hospitals,hospital,13.0293624,80.2440921,,,,no,OSM
378692897,Appolo,pharmacy,13.0348418,80.2555018,,,,no,OSM
378692901,Sugam,pharmacy,13.0386303,80.2517685,,,,no,OSM
378692904,Sugam,pharmacy,13.039551,80.2502927,,,,no,OSM
378692907,Unnamed,pharmacy,13.0402754,80.2500307,,,,no,OSM
378692910,Unnamed,doctors,13.0399682,80.2503287,,,,no,OSM
378692913,Unnamed,doctors,13.0406602,80.2505675,,,,no,OSM
410710342,Unnamed,pharmacy,13.0202464,80.2429776,,,,no,OSM
410710346,Unnamed,pharmacy,13.0201628,80.2429432,,,,no,OSM
442508332,Sarswathi Hospital,hospital,12.9653846,80.2067733,,,,no,OSM
459635161,Apollo Clinic & Pharmacy,hospital,13.05244,80.2041657,,,,no,OSM
459642871,Abhirami Medicals,pharmacy,13.0540717,80.2040147,,,,no,OSM
459648701,Vijaya Heart Centre,hospital,13.0483819,80.2070144,,,,no,OSM
595662363,Geetha Pharmacy,pharmacy,13.0570316,80.1939439,,,,no,OSM
595706154,"Vasan Eye Care Hospital, Vadapalani",hospital,13.0495316,80.211027,,,,no,OSM
597590621,JJ Hospital,hospital,13.0571293,80.1942138,,,,no,OSM
612527668,Seven Star Pharmacy,pharmacy,13.0726659,80.2083688,,,,no,OSM
928070924,Unnamed,pharmacy,13.04426,80.2272823,,,,no,OSM
941471945,Appasamy Hospital,hospital,13.0750445,80.2151198,,,Appasamy Hospital,no,OSM
941482690,Seetha Medicals,pharmacy,13.0706398,80.2081591,,,,no,OSM
941611681,Appasamy Hospital,hospital,13.073239,80.2148826,,,,no,OSM
941621037,Appolo Clinic,hospital,13.0892073,80.2178866,,,,no,OSM
992583956,Om Medicals,hospital,13.0529181,80.2039631,,,,no,OSM
992584083,Unnamed,pharmacy,13.0529181,80.2039636,,,,no,OSM
1018359157,Apollo,pharmacy,13.029475,80.2539531,,,,no,OSM
1067496698,Capz and Tabz,pharmacy,13.0279792,80.2638653,,,,no,OSM
1127285905,Aakash Fertility Centre & Hospital,hospital,13.0554597,80.2118365,,,,no,OSM
1152858038,Rajan Eye Care Hospital,hospital,13.0508335,80.2434416,Vidyodaya 2nd Cross Street,2834 0500/0300,,no,OSM
1315895438,sree dhanalakshmi family clinic,hospital,13.0583046,80.211745,,,,no,OSM
1330439616,Unnamed,pharmacy,12.9267155,80.2028228,,,,no,OSM
1446415367,Bhadra Homeo,hospital,12.9663879,80.2474724,PERUNGUDI,,,no,OSM
1450869068,Meiyappan Medicals,pharmacy,12.9738813,80.2581824,,,,no,OSM
1472969165,Amma Hospital,hospital,13.0626045,80.2305209,"7th street, Choolaimedu high road",,,yes,OSM
1474055555,Right Hospitals,hospital,13.0787952,80.2405731,,,,yes,OSM
1560720462,Vasan Eye Care Hospital,hospital,13.0015307,80.2552541,,,,no,OSM
1597151538,Unnamed,hospital,13.0584072,80.2011738,,,,no,OSM
1640625235,Unnamed,pharmacy,12.9809069,80.2289781,,,,no,OSM
1666841790,Saravana Medicals,pharmacy,12.9294425,80.2029696,,,,no,OSM
1666846861,Unnamed,pharmacy,12.9283338,80.2018315,,,,no,OSM
1697808540,Periyandaver Pharmacy,pharmacy,13.0266818,80.270192,,,,no,OSM
1764130037,Jayanthi Enterprise,pharmacy,12.970622,80.2182562,,,,no,OSM
1789987574,Prime Care Nursing Home,hospital,12.9799192,80.2044922,"44, Shakti Nagar Main Road, Adambakkam, Balaji Nagar, Adambakkam, Chennai, Tamil Nadu 600088",,,no,OSM
1797128712,Siva Medicals,pharmacy,13.0728115,80.2079408,,,,no,OSM
1895925529,S L V Medicals,pharmacy,12.94626,80.1970939,,,,no,OSM
1921334902,Apollo Pharmacy,pharmacy,12.9796042,80.1880567,46th Street,,,no,OSM
1926719654,Gokul Medicals,pharmacy,12.9810527,80.1882119,,,,no,OSM
1948616260,Apollo Free Emergency Clinic,hospital,13.0677233,80.2050055,,,,no,OSM
1948616269,Apollo Pharmacy,pharmacy,13.0677514,80.2050048,,,,no,OSM
1955943159,Agarwal Hospital,hospital,13.0385656,80.2165845,,,,no,OSM
1955943164,Rajan Opticals,pharmacy,13.0346459,80.2163029,,,,no,OSM
1955943166,Agarwal,pharmacy,13.0385891,80.2166274,,,,no,OSM
1957903721,Senthil Nursing Home,hospital,13.0849671,80.2004752,,,,no,OSM
1957904106,I K Hospital,hospital,13.0868667,80.1991661,,,,no,OSM
1993266486,Ortho clinic,hospital,12.9800456,80.2286587,,,,no,OSM
2053800296,Unnamed,pharmacy,12.9464081,80.1950005,,,,no,OSM
2053800304,Unnamed,pharmacy,12.9482745,80.1996675,,,,no,OSM
2120763195,SP Hospital,hospital,12.9933638,80.2009134,,,,yes,OSM
2124734395,Fourtts India Laboratories,hospital,12.9321684,80.2337388,,,,no,OSM
2126461371,Rotary Central Margaret Sidney Hospital,hospital,12.9837958,80.1932105,,,,no,OSM
2145405955,Sri Chakra Hospital,hospital,12.9786524,80.1850278,,,,no,OSM
2151933464,Apollo Pharmacy,pharmacy,12.9860357,80.1885197,,,,no,OSM
2162769565,RA Usha's clinic,clinic,12.918328,80.187629,,,,no,OSM
2162770047,SV clinic,clinic,12.917927,80.187478,,,,no,OSM
2162771723,SV Lab,clinic,12.917897,80.187416,,,,no,OSM
2162771900,V-Care Clinic,clinic,12.917246,80.1873,,,,no,OSM
2162772403,RPT Medicals,pharmacy,12.917288,80.187317,,,,no,OSM
2163785044,KK clinic,clinic,12.886344,80.188974,,,,no,OSM
2210056220,Rajan Hospital,hospital,12.8928496,80.1835976,,,,no,OSM
2253361647,Dr. Janardhanan Multispeciality Dental Clinic,hospital,12.9842586,80.1886083,,,,no,OSM
2253368679,Ambhika Medicals,pharmacy,12.9843945,80.188611,,,,no,OSM
2258356173,MedPlus,pharmacy,12.9872328,80.1881281,,,,no,OSM
2296731456,Dr Venugopals' Sundaram Clini,hospital,13.076782,80.268345,,,,no,OSM
2296731781,Dr Kabir's Clinic,hospital,13.0768734,80.2678381,,,,no,OSM
2296732187,Dr Sridhars'Clinic,hospital,13.0764345,80.2672427,,,,no,OSM
2394694856,Apollo Pharmacy,pharmacy,13.0904821,80.215805,,,,no,OSM
2485567524,Vepery Hospital,hospital,13.0921812,80.2594411,,,,no,OSM
2559180846,Jaws Dental Foundation,hospital,13.0929667,80.2236256,30th Street,,,yes,OSM
2587530810,Chennai Skin Foundation,hospital,13.0205681,80.2594702,,,,no,OSM
2669702938,Sukrthi Nursing Home,hospital,12.9710287,80.2082964,Mullai Street,,,yes,OSM
2669790528,Chennai Jayanth Acupuncture Clinic,alternative,13.0743875,80.2006671,"School Street, Koyambedu",+91 77082 11515,,no,OSM
2676678607,24 Hours Hospital,clinic,13.024235,80.2231706,Karaneeswar Koil Street,,Private,yes,OSM
2878310971,Roja Medicals,pharmacy,12.9806725,80.1881307,,,,no,OSM
2926952454,Clinic,doctors,13.0158037,80.1748437,,,,no,OSM
2926952456,LAB,pharmacy,13.0158622,80.1748512,,,,no,OSM
2926952458,Unnamed,pharmacy,13.015755,80.1748112,,,,no,OSM
3118864398,Kauvery Hospital,hospital,13.0381705,80.2573008,Luz Church Road,+914440006000,,yes,OSM
3240606754,Shri Ganesh Pharmacy,pharmacy,12.9886621,80.1903162,5th Main Road,,,no,OSM
3372786283,Velachery SABA Hospital,hospital,12.9862735,80.2298924,,,,no,OSM
3397750866,Dr. Reddi's Poly Clinic,clinic,13.022387,80.2230108,Karaneeswar Koil Street,,,no,OSM
3450053562,Appollo Pharmacy,pharmacy,13.0249589,80.2204682,Jones Road,,,no,OSM
3450059376,Sushil Medicals,pharmacy,13.0248573,80.2204111,,,,no,OSM
3453282583,Sri Ram Medicals,pharmacy,13.0250873,80.221673,,,,no,OSM
3453302326,Amman Medicals,pharmacy,13.0249743,80.2207562,,,,no,OSM
3453302327,Ganesh Medicals,pharmacy,13.0249507,80.2203146,,,,no,OSM
3453302328,Naga Medicals,pharmacy,13.0250178,80.2213774,,,,no,OSM
3453302329,Sugam Poly Clinic,clinic,13.0248543,80.2208806,Jones Road,,,no,OSM
3453328189,24 Hours Health care centre,clinic,13.0248243,80.2203784,Jones Road,,,no,OSM
3453367856,Sri Karaneeswarar Medicals,pharmacy,13.0242117,80.2231695,Karaneeswar Koil Street,,,no,OSM
3453898726,Udayam Medicals,pharmacy,13.0222576,80.2211617,,,,no,OSM
3467526751,Sri Iyappa Medicals,pharmacy,13.0216638,80.2194646,,,,no,OSM
3470834274,Unnamed,pharmacy,13.0221323,80.2245935,Bazaar Road,,,no,OSM
3470862093,"Dr. R. Gurusamy, ENT & General",doctors,13.0246739,80.2203223,Subramania Swamy Koil Street,,,no,OSM
3470862094,Rajesh Clinic,doctors,13.0252349,80.2227857,Jones Road,,,no,OSM
3470862095,Smile Care,dentist,13.0252375,80.2228534,Jones Road,,,no,OSM
3470914439,Jaya Medicals,pharmacy,13.0395967,80.2213776,Arya Gowda Road,,,no,OSM
3471088863,Tooth Craft,dentist,13.0242232,80.2231722,Karaneeswar Koil Street,,,no,OSM
3485824671,MedPlus,pharmacy,13.0247344,80.2168255,,,,no,OSM
3485824672,Saranya Medicals,pharmacy,13.0221564,80.2207542,,,,no,OSM
3485824673,Saravana Medicals,pharmacy,13.0222453,80.2206601,,,,no,OSM
3485824674,Sayer Pharmacy,pharmacy,13.0218682,80.224325,,,,no,OSM
3485824675,Sindhu Pharmacy,pharmacy,13.0221953,80.2226021,,,,no,OSM
3485824676,Vasantham Medicals,pharmacy,13.0222897,80.2199272,,,,no,OSM
3485824677,Unnamed,pharmacy,13.0224517,80.2194413,,,,no,OSM
3493034087,Unnamed,pharmacy,12.9867053,80.2243017,,,,no,OSM
3494254196,Bohra Tooth Palace,dentist,13.0923775,80.2777601,General Muthiah Street,,,no,OSM
3494254197,Unnamed,pharmacy,13.0922553,80.2777363,,,,no,OSM
3508280901,Gandhi Pharmacy,pharmacy,12.9857194,80.2291961,,,,no,OSM
3524770229,Maruthi Pharmacy,pharmacy,13.0242543,80.2185088,,,,no,OSM
3614668683,JOGO Clinic,psychotherapist,13.0003975,80.2611458,,,,no,OSM
3680482049,"Sri Meenakshi Nursing Home, Chennai",clinic,13.041711,80.2285827,Railway Border Road,044 2345 5290,,no,OSM
3685002782,West Mambalam Pharmacy,pharmacy,13.0419746,80.2249547,,,,no,OSM
3687711447,Kaya Skin clinic,hospital,12.9767775,80.2223505,,,,no,OSM
3735409816,Jeyalakshmi Medicals,pharmacy,13.0420421,80.2257791,,,,no,OSM
3735409817,Madras Medicals,pharmacy,13.0172184,80.2410405,,,,no,OSM
3745022788,Vinodh Medicals,pharmacy,13.0391259,80.2212706,Arya Gowda Rd,,,no,OSM
3774546122,Andavar Medicals,pharmacy,12.9991848,80.2563513,,,,no,OSM
3774546123,Nagappa Pharmacy,pharmacy,12.9992548,80.257968,Shastri Nagar 1st Cross St,,,no,OSM
3777708607,MedPlus,pharmacy,12.9991541,80.2566841,9th Lane,,,no,OSM
3800583777,Apollo Pharmacy,pharmacy,13.0363292,80.2226905,,,,no,OSM
3800583778,Mumtaz Medicals,pharmacy,13.0366726,80.2230223,,,,no,OSM
3800583779,Saravana Medicals,pharmacy,13.0362675,80.2222656,,,,no,OSM
3810841790,Dhanalakshmi Medicals,pharmacy,13.0368258,80.2230191,,,,no,OSM
3919826308,Specialist Pharmacy,pharmacy,12.985733,80.2182467,,,,no,OSM
3969967345,Bawaa Medicals,pharmacy,12.968197,80.1487307,,,,no,OSM
3971391760,Unnamed,pharmacy,12.9859425,80.2282833,,,,no,OSM
3971391761,Appolo Pharmacy,pharmacy,12.9861154,80.2274512,,,,no,OSM
3978318677,Unnamed,pharmacy,13.0597957,80.195286,,,,no,OSM
3982078512,Pavithra Hospital,hospital,13.1260907,80.2488406,Ethiraj Samy Salai,,,no,OSM
4221573903,Shankara Netralaya Eye Hospital,hospital,13.0642564,80.2497746,Pycrofts Garden Road,,,no,OSM
4238552590,Dr Aslam Yousuff Clinic,doctors,13.0861416,80.2529597,,26423282,,no,OSM
4269972191,Shree devi medicals,pharmacy,13.0610433,80.2765499,Parthasarathy Street,7200935169,,no,OSM
4329387869,Srinivasan Rajalakshmi Memorial Hospital,hospital,12.9733792,80.187599,"6th street,voltas colony","+91 98401 17136, +91 44 4504 6010","Dr. S.Krishnan , MD.RT, Dr. Mrs. P. Radha [MD]",yes,OSM
4374965690,Unnamed,pharmacy,12.9293923,80.2025632,Velachery Main Road,,,no,OSM
4402711896,Sri Nanthish Medicals,pharmacy,13.0111273,80.1530134,"Sri Amman Nagar, Kolapakkam main road",+91 44 6450 6869,,no,OSM
4411855591,Unnamed,clinic,12.9745585,80.2201536,,,,no,OSM
4417312196,Apollo Pharmacy,pharmacy,13.0339283,80.2142544,53rd Street,04424745946,,no,OSM
4421926391,Unnamed,clinic,13.0672454,80.2496008,College Road,,,no,OSM
4486583996,Chennai Medical Centre Hospital,hospital,13.0380047,80.1889685,,,,no,OSM
4488082604,SRM Institutes For Medical Science,hospital,13.0515961,80.2114304,Jawaharlal Nehru Road (100 Feet Road),+91 44 2000 2001,,no,OSM
4488387389,Unnamed,clinic,13.0327786,80.2526813,TTK Road,04424346665,,no,OSM
4549736615,Unnamed,pharmacy,12.9645947,80.2111207,,,,no,OSM
4549736618,Unnamed,pharmacy,12.9651772,80.2076115,,,,no,OSM
4549736619,Unnamed,pharmacy,12.9651808,80.2070403,,,,no,OSM
4549736620,Unnamed,pharmacy,12.9653086,80.2064949,,,,no,OSM
4549736621,Unnamed,pharmacy,12.9654845,80.2065693,,,,no,OSM
4580687657,Siva clinic,clinic,13.0313209,80.2247278,,,,no,OSM
4580687658,Sri Krishna Medicals,pharmacy,13.0313163,80.2246668,,,,no,OSM
4580688050,Sri Desikan Clinic,doctors,13.0366881,80.2230407,,,,no,OSM
4740021911,Gokul XRAY,pharmacy,13.0396163,80.2630412,,,,no,OSM
4764302980,HEALTH,hospital,13.0135999,80.2395364,,,,no,OSM
4813324323,Unnamed,hospital,13.1133021,80.2905249,SOMU STREET 6th LANE,+914425980998,,no,OSM
5040904305,MedPlus,pharmacy,12.9692614,80.1874944,,,,no,OSM
5229515285,Primary Health Center,centre,13.0176941,80.2058832,,,,no,OSM
5263563022,Unnamed,hospital,13.1131363,80.2429369,,,,no,OSM
5305752194,Sukham Pharmacy,pharmacy,13.0856902,80.2030609,12th Main Road,,,no,OSM
5306591795,Sha Dental Clinic,dentist,13.0857438,80.2029307,,,,no,OSM
5306596304,Neuro Clinic,clinic,13.0862108,80.2048268,H Block 5th street,04426164055,,no,OSM
5318562365,Dr. Ram's Diabetes & Endocrine Clinic,clinic,13.0860731,80.1983714,"J.J. Complex, Jawaharlal Nehru Road, Thirumangalam",9333193331,,no,OSM
5318565084,Heart Care Clinic,clinic,13.0856328,80.1983243,"J.J. Complex, Jawaharlal Nehru Road, Thirumangalam",,,no,OSM
5332431685,Shifa Medicals,pharmacy,12.9658654,80.2568782,,,,no,OSM
5332436330,Apollo Pharmacy,pharmacy,12.9752059,80.2588333,,,,no,OSM
5332437283,Sri Meyyappa Medicals,pharmacy,12.9738038,80.2584682,,,,no,OSM
5332445810,Family Dentistry Center,dentist,12.9870178,80.2582033,,,,no,OSM
5336394298,S.R. Medicals,pharmacy,13.1026223,80.2090829,,04426180992,,no,OSM
5336395126,MedPlus,pharmacy,13.1026662,80.2089167,,,,no,OSM
5336542921,The Cresent Hospital,hospital,13.0527235,80.2727336,,,,no,OSM
5338508432,Swami Eye Clinic & Surgi Center,clinic,13.1058085,80.2077881,,,,no,OSM
5338508433,Sri Bhagavan Medicals,pharmacy,13.105724,80.2076852,,,,no,OSM
5338512294,Sri Azhagu Medicals,pharmacy,13.1076791,80.2061087,"Redhills road, Villivakkam",,,no,OSM
5338522331,Thai Medical and Generals,pharmacy,13.1092819,80.2062148,,,,no,OSM
5338591947,Gurudev Pharmacy,pharmacy,13.1036499,80.2075899,,,,no,OSM
5338616494,Narayanappah Pharmacy,pharmacy,13.0847337,80.2122632,,,,no,OSM
5359076843,Sathya Pharmacy,pharmacy,13.0852419,80.199355,,,,no,OSM
5367950021,Biocosmo Healthcare,hospital,13.0590329,80.2375326,Mahalingapuram Main Road,7200080075,,no,OSM
5400380244,Coopertive Medicals,pharmacy,13.0873798,80.1974921,,,,no,OSM
5400382372,Ashok Medicals,pharmacy,13.0349633,80.2123839,,,,no,OSM
5489143545,Keerthi clinic,clinic,13.0200088,80.1422946,,9003052532,,no,OSM
5500158687,Vijaya Group of Hospital,hospital,13.0497391,80.2083222,"New No:434, Old No:180, NSK Salai Rd, Vadapalani, Chennai, Tamil Nadu 600026",044 6664 6600,,no,OSM
5525433061,King Institute of Preventive Medicine and Research,centre,13.0142256,80.2181845,,044-22501520,,no,OSM
5547728024,ஹிபா சிறப்பு மருத்துவமனை,hospital,13.0615207,80.275747,Veeraraghava Street (Big St),,,no,OSM
5570522545,ARK Hospital,hospital,12.9856999,80.2293536,Gandhi Road,,,no,OSM
5570584568,Nanomed Clinical Lab,pharmacy,12.9814619,80.2293617,,,,no,OSM
5608708927,Unnamed,doctors,13.0119179,80.2307488,,,,no,OSM
5631872265,Viji Clinic,clinic,13.0298741,80.2217057,Old Mambalam Road,,viyashankar,no,OSM
5631872266,Annamalai Hospital,hospital,13.031147,80.2228983,Govindan Road,,Annamalai,no,OSM
5631872277,Ezhil Hospital,hospital,13.0319539,80.2207913,Govindan Road,,Durairaj,yes,OSM
5792664046,"Qure Ortho Clinic, Physiotherapy, X Ray & Pharmacy",hospital,12.9794,80.2043658,"68, 18th St, Balaji Nagar Extn-II, Vanuvampet, Madipakkam, Chennai, Tamil Nadu 600088",095000 06644,,no,OSM
5910074596,The Guest Pharmacy,pharmacy,13.0770009,80.2387258,EVR Periyar Salai (Poonamallee High Road),,,no,OSM
6015237085,Unnamed,pharmacy,13.0860154,80.2798104,,,,no,OSM
6036525834,VM Medicals,pharmacy,13.105607,80.2099301,"East Mada Street, Villivakkam",,,no,OSM
6036592551,MedPlus,pharmacy,13.108615,80.2077057,,,,no,OSM
6036687186,GK Clinic,clinic,13.1055632,80.2098688,"South Mada Street, Villivakkam",,,no,OSM
6039322857,Jayalakshmi Medicals,pharmacy,13.0874373,80.1970993,"Welcome colony, Anna nagar west",,,no,OSM
6045880759,City Primary Healthcare Centre,centre,13.0354034,80.2504161,Kavingar Barathidasan Road,,,no,OSM
6057943093,Diabetes and Heart Care Clinic,clinic,13.0291736,80.2474284,,,,no,OSM
6131954385,Unnamed,clinic,13.0199102,80.2697182,,,,no,OSM
6167503411,BK ENT care,clinic,13.057865,80.2362823,Mahalingapuram Main Road,+91 44 2817 1314,,no,OSM
6167503412,Suman Clinic,clinic,13.055823,80.2348714,Mahalingapuram Main Road,+91 44 2817 4422,,no,OSM
6185882385,Nivas Skin Clinic,hospital,13.0289663,80.2085951,,,,no,OSM
6187367787,Unnamed,clinic,13.0723143,80.2530089,SAIT Colony 1st Street,"9841214222,9962222266",,no,OSM
6237693085,Unnamed,pharmacy,13.0853754,80.2520126,,,,no,OSM
6274294885,Unnamed,pharmacy,13.0636828,80.2773224,,,,no,OSM
6274320987,Unnamed,pharmacy,13.0651517,80.2739292,,,,no,OSM
6274344085,Unnamed,pharmacy,13.0634397,80.274789,,,,no,OSM
6324654184,Aryan Clinic,clinic,13.0464568,80.2457288,Narashiman 2nd Street,,,no,OSM
6640623885,Unnamed,doctors,13.0682794,80.2604397,Montieth Lane,,,no,OSM
6681271185,Unnamed,clinic,13.0708359,80.2657441,,,,no,OSM
6886285315,Dr.Kamatchi Memorial and Blood Component Research Centre,blood_donation,12.9493001,80.2095059,,,,no,OSM
6886285316,Rotary Blood Bank - Chennai,blood_donation,12.9810509,80.195537,,,,no,OSM
6886285317,The Tamil Nadu Dr. MGR Medical University Blood Bank,blood_donation,13.0098682,80.2182251,,,,no,OSM
6886285320,Apollo Cancer Centres,hospital,13.0337515,80.2451004,"Anna Salai, Teynampet,",,,no,OSM
6893114494,Sree Venkateswara Blood Bank,blood_donation,13.10995,80.282059,,,,no,OSM
6914280086,Raju Hospitals,hospital,13.0329888,80.230346,,,,no,OSM
6914280087,"Raju Nursing Home, Chennai",clinic,13.1193228,80.2254523,,,,no,OSM
6914280107,Hitech Diagnostic Centre,laboratory,13.0855408,80.2504653,,,,no,OSM
6914764653,Sri Kalyan Hospital,hospital,13.0063976,80.2507134,,,,no,OSM
6914767986,Sundaravadanan Nursing Home,clinic,13.0793555,80.2560469,,,,no,OSM
6914768001,Sen Hospital,hospital,13.1105649,80.2418775,,,,no,OSM
6914768012,"Angel Nursing Home, Washermenpet",clinic,13.1116559,80.2847452,,,,no,OSM
6914768046,Billroth Hospitals,hospital,13.0757435,80.2272588,,,,no,OSM
6914768063,Cauvery Trust Hospital,hospital,13.1026603,80.2112943,,,,no,OSM
6914768069,Kedar Hospital,hospital,13.0229098,80.1670808,Mugalivakkam Main Road,,,no,OSM
6914768086,Soundarapandian Bone and Joint Hospital Research Institute Pvt. Ltd.,hospital,13.0835957,80.2156462,,,,no,OSM
6914768088,Dr. U. Mohan Rau Memorial Hospital - Chennai,hospital,13.079494,80.2572808,,,,no,OSM
6914880505,Vijaya Institute Of Trauma and Orthopadics,clinic,13.0477799,80.2065495,,,,no,OSM
6914880538,Chennai Cancer Care,hospital,13.0762935,80.234026,,,,no,OSM
6914880539,Chennai Eye Care Hospital,hospital,12.9789449,80.2246302,,,,no,OSM
6914880540,Chennai Heart Centre,hospital,13.0917939,80.2410534,,,,no,OSM
6914880546,Chennai Kaliappa Hospital,hospital,13.0268492,80.2558082,,,,no,OSM
6914880552,Mots Hospital,hospital,13.0833606,80.2341561,,,,no,OSM
6914880558,"Mother and Child Care Clinic, Chennai",clinic,13.0223545,80.2042052,,,,no,OSM
6914880574,"Mohan Nursing Home, Tiruvallur",clinic,13.1025336,80.2090412,,,,no,OSM
6914880584,Vasanthi Orthopaedic Hospital,hospital,13.0723588,80.2157642,,,,no,OSM
6914894005,Mina Nursing Home,clinic,13.0074586,80.206874,,,,no,OSM
6914896192,R.M.D. Nursing Home,clinic,13.0440054,80.2355951,,,,no,OSM
6914896212,R.K. Gynaec And Maternity Hospital,hospital,13.0788127,80.2481786,,,,no,OSM
6914896214,R.G. Stone Urological Research Institute,hospital,13.0240792,80.2278288,,,,no,OSM
6914896215,R. K. Eye Centre,hospital,13.0485912,80.2311788,,,,no,OSM
6914896269,Psymed Hospiyal,hospital,13.0714757,80.2317998,,,,no,OSM
6914896280,"Priya Nursing Home, Perambur",clinic,13.1122071,80.2496512,,,,no,OSM
6914896281,"Priya Nursing Home, Chennai",clinic,13.1192888,80.2889456,,,,no,OSM
6914911764,"Vasanthram Hospital (P) Ltd.,",hospital,13.0433091,80.2187696,,,,no,OSM
6914927162,Vadapalani Multispeciality Hospital,hospital,13.0516559,80.2133146,,,,no,OSM
6914937617,Sri Ramachandra Hospital,hospital,13.0378713,80.1402023,,,,no,OSM
6914937645,Sri Ramana Eye Center,clinic,13.0425395,80.2430315,,,,no,OSM
6914937661,Sri Sai Sankara Dental Clinic And Orthodontic Cent,clinic,13.1173689,80.2315973,,,,no,OSM
6914937681,Sri Sayee Poly Clinic,clinic,13.0422887,80.2665116,,,,no,OSM
6914981225,Prakriti Ayurvedic Center,clinic,13.0224512,80.2639461,,,,no,OSM
6915117046,"M N Eye Hospital Private Limited, Tondiarpet",hospital,13.1232306,80.2876528,,,,no,OSM
6915134068,Doctor Rexs Hospitals,hospital,13.0838812,80.2502386,,,,no,OSM
6915201226,Helios Hospital Pvt Ltd,hospital,12.9855882,80.2189144,,,,no,OSM
6915211726,Sriram Dental Clinic and Orthodontic Centre,clinic,12.9850289,80.1891057,,,,no,OSM
6915218991,Deepam Muthu Hospital,hospital,13.0995855,80.2605303,,,,no,OSM
6915219120,"Lakshmi Nursing Home, Kanchipuram",clinic,12.9701888,80.1479395,Church Road,,,no,OSM
6915222815,M.K. Nursing Home,clinic,13.1217763,80.2858047,,,,no,OSM
6915323752,Padmini Nursing Home,clinic,13.0727703,80.2343653,,,,no,OSM
6915463333,Malligai Hospital,hospital,13.1238765,80.2899749,,,,no,OSM
6915804195,Raja Annamalai Puram Dispensary No.6,clinic,13.0213249,80.2596237,,,,no,OSM
6915813496,Joseph Eye Clinic,clinic,13.0813437,80.2588713,,,,no,OSM
6915836812,Huma Specialists Hospital and Research Centre Pvt Ltd,hospital,13.0282655,80.235353,,,,no,OSM
6915842017,Dr Radha Rajendran Nursing Home Pvt Ltd,clinic,13.0057455,80.2044077,,,,no,OSM
6915850074,Regina Nursing Home,clinic,13.0863886,80.2339844,,,,no,OSM
6916036301,The Surgical Clinic and Nursing Home,clinic,13.028161,80.2681853,,,,no,OSM
6916036803,Divya Hospital,hospital,12.9644392,80.187601,Mount - Medavakkam Road,,,no,OSM
6916164281,Balaji Nursing Home - Chennai,clinic,12.9959072,80.2586031,,,,no,OSM
6916178396,Noor`S Hospital,hospital,13.1418442,80.2485046,,,,no,OSM
6916205172,"Vasan Eye Care Hospital, Perambur",hospital,13.1177888,80.2287099,,,,no,OSM
6925987220,Getwel Dental Clinic,clinic,13.0247168,80.1493795,,,,no,OSM
6926045316,Ramana Clinic And Nursing Home,clinic,12.9815305,80.2207484,,,,no,OSM
6926045326,Sri Sai Krs Hospital,hospital,13.0379843,80.2163241,,,,no,OSM
6926049961,"Gowri Nursing Home, Kanchipuram",hospital,12.9779713,80.1883923,,,,no,OSM
6926049968,Gopalapuram Dispensary,clinic,13.0490968,80.2576214,,,,no,OSM
6926055600,Satish Eye Hospital,hospital,13.0813959,80.2469972,,,,no,OSM
6926055919,Uma Eye Clinic Pvt.Ltd,clinic,13.0854776,80.2034474,,,,no,OSM
6926055920,"A.K. Hospital, Chennai",hospital,13.0741442,80.220515,,,,no,OSM
6926055922,Ammayi Eye Hospital,hospital,13.0331935,80.2159045,,,,no,OSM
6926055923,K.M. Speciality Hospital,hospital,13.0379671,80.2013517,,,,no,OSM
6926060954,Subha Hospital,hospital,13.1113868,80.2923493,,,,no,OSM
6926072169,Apollo Cosmetic Clinic,clinic,13.0177421,80.2712363,,,,no,OSM
6926107781,Radhatri Nethralaya,hospital,13.0339283,80.2394965,,,,no,OSM
6926118208,"S M Hospital, Chennai",hospital,13.0400969,80.2044211,,,,no,OSM
6926173267,Cu Shah Sankara Netralaya,hospital,13.0012687,80.2001283,,,,no,OSM
6926176409,Subiksha Nursing Home,clinic,13.1118191,80.2419198,,,,no,OSM
6926280322,Aashiana Hospital,hospital,13.0924039,80.2090184,,,,no,OSM
6926368877,SMV Nursing Home,clinic,13.0473231,80.2127641,,,,no,OSM
6926411928,"Ayesha Hospital, Kilpauk",hospital,13.0847009,80.2498054,,,,no,OSM
6926421019,Fathima Nursing Home,clinic,13.1272912,80.2461,,,,no,OSM
6926437405,Frontline Eye Hospital,hospital,13.0323531,80.2517212,,,,no,OSM
6926437416,Fousiya Hospital,hospital,13.0477722,80.2744473,,,,no,OSM
6926437422,Dr Iravathams Laboratory,laboratory,13.0420156,80.237081,,,,no,OSM
6926437428,Hande Hospital,hospital,13.0764653,80.2274586,,,,no,OSM
6926437438,Halsted Surgical Clinic,clinic,13.0780413,80.2415872,,,,no,OSM
6926437454,Dr Gurusekaran Hospital Pvt Ltd,hospital,13.0374924,80.2381137,,,,no,OSM
6926437460,Guindy Dispensary,clinic,13.010217,80.2217737,,,,no,OSM
6926494055,G. R. Hospital & Fertility Centre,hospital,12.9952982,80.2068955,,,,no,OSM
6926494067,G K M Hospital Pvt Ltd,hospital,13.0899919,80.2585199,,,,no,OSM
6926808792,Starlight Hospitals Pvt Ltd,hospital,12.9864526,80.2601581,,,,no,OSM
6926953017,Kaliappa Renal Center,hospital,13.0274616,80.2566481,,,,no,OSM
6926953024,K P Childrens Hospital And Neuro Centre,hospital,12.9911179,80.1986745,,,,no,OSM
6927267098,Ayur Kshetra ( A Unit Of Institute Of Ayurvedic Research Pvt Ltd),hospital,13.0760812,80.2107431,,,,no,OSM
6927292449,Krishna Eye And Ent Hospitals,hospital,13.0343985,80.2339764,,,,no,OSM
6927308315,Vishnu Eye Clinic and Laser Foundation,hospital,13.0842894,80.2230605,,,,no,OSM
6927326555,Fathimah Eye Clinic,clinic,13.0290932,80.2775791,,,,no,OSM
6927380447,"Santhigiri Ayurveda and Siddha Hospital, Chennai",hospital,13.0476871,80.2646568,,,,no,OSM
6927647007,Vijaya Heart Foundation - Vijaya Hospital,hospital,13.054729,80.2110462,,,,no,OSM
6927769046,Santosh Hospital Pvt Ltd,hospital,12.995229,80.2691898,,,,no,OSM
6928042666,"Dr.Agarwal's Eye Hospital Ltd., Anna Nagar",hospital,13.0847414,80.2219681,,,Dr. Agarwal's Eye Hospital,no,OSM
6928094720,Athipathi Hospital and Research Centre,hospital,12.9762711,80.2222002,,,,no,OSM
6928167787,Girishwari Hospital Pvt Ltd,hospital,13.0349787,80.2519137,,,,no,OSM
6928327073,Sri Kumaran Multi Speciality Hospital,hospital,13.1152895,80.2923614,,,,no,OSM
6928384708,Dr. K Ravi Eye Care,hospital,13.0407013,80.2618016,,,,no,OSM
6928727073,Madras Ent Research Foundation,hospital,13.0268688,80.2541439,,,,no,OSM
6928752799,Dr. Mohans Mv Diabetes Specialities Centre - Chennai,hospital,13.0541946,80.257671,,,,no,OSM
6928752800,Dr. Meera Nursing Home,clinic,13.086608,80.2468979,,,,no,OSM
6928779096,Chettinad Super Speciality Hospital,hospital,12.9109406,80.228211,,,,no,OSM
6928779097,Lister Metropolis Laboratory and Research Centre Pvt. Ltd.,laboratory,13.0614296,80.2456105,,,,no,OSM
6928800364,Dr V Rathna Prabhu,doctors,13.0449508,80.2388835,,,,no,OSM
6928878284,Lifeline Rigid Hospital,hospital,13.0780204,80.2336988,,,,no,OSM
6928899364,Dr. Seshiah Diabetes Research Institute and Dr. Balaji Diabetes Care Centre,hospital,13.0748591,80.2299839,,,,no,OSM
6928920472,Dr.Kamakshi Memorial Hospital,hospital,13.0022187,80.2520867,,,,no,OSM
6928920473,Dr.Duraiswami Eye Hospital,hospital,13.034051,80.2279374,,,,no,OSM
6928936138,Dr.C. Satheesh,doctors,13.0991061,80.2836885,,,,no,OSM
6928936148,Dr.Agarwals Eye Hospital - Velacherry,hospital,12.9832366,80.217509,,,Dr. Agarwal's Eye Hospital,no,OSM
6928936149,"Dr.Agarwal's Eye Hospital Ltd, Nanganallur",hospital,12.9827844,80.1891661,,,,no,OSM
6928936160,Dr. Udhaya Rajas Dental Centre,hospital,13.0465492,80.2422899,,,,no,OSM
6929234791,Voluntary Health Services Medical Centre,clinic,13.0027257,80.2469087,,,,no,OSM
6929255218,Sri Bala Nursing Home,hospital,13.1183119,80.2318051,,,,no,OSM
6929259906,Lakshmi Hospital,hospital,13.0314888,80.2218689,,,,no,OSM
6929264393,Aarthi Priyas Tooth Care Clinic,clinic,12.9743958,80.2200463,,,,no,OSM
6929266356,Nanthini Hospital,hospital,12.9326457,80.2320063,,,,no,OSM
6929359057,Bharathirajaa Hospital and Research centre,hospital,13.0480981,80.245015,,,,no,OSM
6929359073,Bethany Health Care Centre,hospital,13.0699812,80.2444142,,,,no,OSM
6929359084,Bhagwan Mahaveer Eye Hospital,hospital,13.1105084,80.2917197,,,,no,OSM
6929372894,Bharani Nursing Home,clinic,13.1102609,80.2376792,,,,no,OSM
6929372895,Bharat Specialities Lab,laboratory,12.982659,80.1959534,,,,no,OSM
6929372896,Bharath Hospital,hospital,12.9823277,80.1937835,Nanganallur 1st Main Road,+91 44 2224 6481;+91 44 2224 6789;+91 98419 72378,,no,OSM
6929395441,Warriers Dental Care,dentist,12.9866317,80.189842,,,,no,OSM
6929398895,Trinity Acute Care Hospital - Chennai,hospital,13.0382607,80.2582785,,,,no,OSM
6929592168,Balakrishna Eye Hospital,hospital,13.0274436,80.2269866,,,,no,OSM
6929592183,Balagandhara Varma Nursing Home and Research Center,clinic,12.9378832,80.2082151,,,,no,OSM
6929592184,Bagdi Nursing Home,clinic,13.0533846,80.2374941,,,,no,OSM
6929625895,B.S.S. Hospital,hospital,13.026013,80.2655232,,,,yes,OSM
6929625901,B.R.S. Hospital Pvt. Ltd.,hospital,13.0519442,80.2454831,,,,no,OSM
6929731466,Harvey Healthcare Limited,hospital,13.037303,80.2558136,,,,no,OSM
6929737121,Chitra's Ent Laser Hospital,hospital,13.0518247,80.2476483,,,,no,OSM
6929910241,"Krishna Dental Clinic, Chennai",dentist,13.0874336,80.2177075,,,,no,OSM
6929922974,Das Nursing Home,clinic,12.9893694,80.1422824,,,,no,OSM
6929969774,Kottakkal Arya Vaidya Sala,hospital,13.0395483,80.2313016,,,,no,OSM
6930010121,C.U. Shah Clinic And Diagnostic Center,clinic,13.0863304,80.2583543,,,,no,OSM
6930163091,Je Nesam Hospital,hospital,13.0405732,80.2146873,,,,no,OSM
6930163175,Chennai Meenakshi Multispeciality Hospital Ltd,hospital,13.0376198,80.2619625,,,,no,OSM
6930188138,Chennai Skin Foundation and Yesudian Research Institute,hospital,13.0210394,80.2592924,,,,no,OSM
6930467954,Dr.Mu.Va.Hospital,hospital,13.0743327,80.228278,,,,no,OSM
6931566251,Mysaan Hospital,hospital,13.0641326,80.2705644,,,,no,OSM
6931658649,V H M Hospitals Pvt Ltd,hospital,13.0462892,80.1979979,,,,no,OSM
6931772821,Ritherdon Nursing Home,clinic,13.0815684,80.2587748,,,,no,OSM
6931772941,Robin and Robin Health Care,hospital,13.0807741,80.1989025,,,,no,OSM
6932068862,West Madras Medical Centre,hospital,13.0850496,80.215956,,,,no,OSM
6932077905,Rathina Clinic,clinic,13.1098612,80.2909854,,,,no,OSM
6932103990,"Kauvery Hospital, Chennai",hospital,13.0390564,80.2568208,,,,no,OSM
6932138889,Rathi Med Speciality Hospital,hospital,13.0916495,80.2179844,,,,no,OSM
6932142269,Rathenam Nursing Home,clinic,13.1113476,80.284929,,,,no,OSM
6932203729,Santhi Hospital,hospital,12.9507835,80.255186,East Coast Road SH49,,Private,yes,OSM
6932706544,Suraksha Ent Care Centre,clinic,13.0331886,80.258056,,,,no,OSM
6932740110,Sunder Eye Hospital,hospital,13.08497,80.2159721,,,,no,OSM
6932938089,Laksha Hospital,hospital,13.0435469,80.2636349,,,,no,OSM
6932966221,Narayanaa Hospital,hospital,13.0893773,80.2547595,,,,no,OSM
6933010451,Janamma Hospital,hospital,13.0269457,80.2623196,,,,no,OSM
6933010456,Janaki E.N.T. Nursing Home,clinic,13.0970567,80.2821958,,,,no,OSM
6933016136,"Noble Hospital, Chennai",hospital,13.0821536,80.253244,,,,no,OSM
6933038486,"J.K. Hospital, Chennai",hospital,13.1354513,80.2934799,,,,no,OSM
6933038519,Ishwarya Nursing Home,clinic,13.1129411,80.2822602,,,,no,OSM
6933038566,Indira Eye Hospital,hospital,13.0222055,80.2622388,,,,no,OSM
6933038567,Indian Hospitals,hospital,13.0766658,80.2057502,,,,no,OSM
6933105884,Sheeba Multi Speciality Clinic,clinic,13.1168517,80.2279428,,,,no,OSM
6933130958,Diabetes Research Centre and M.V.Hospital For Diabetes,hospital,13.1119458,80.2952072,,,,no,OSM
6933279103,"Vasan Eye Care Hospital, Neelankarai",hospital,12.9504267,80.2551001,,,,no,OSM
6933334832,Sarathy Nursing Home,clinic,12.9926586,80.20008,,,,no,OSM
6933370913,Apollo First Medical Foundation,hospital,13.0776912,80.2459216,,,,no,OSM
6933510845,Julian Nursing Home,clinic,13.1063124,80.2506946,,,,no,OSM
6933510851,Josephs Nursing Home,hospital,13.0739408,80.2357346,,,,no,OSM
6933510877,Jayam Polyclinc,hospital,12.9958562,80.2603345,,,,no,OSM
6933510882,Jayam Nursing Home,clinic,13.122272,80.2894968,,,,no,OSM
6933514287,Jayadev Polyclinic Hospital,hospital,13.0778545,80.2415295,,,,no,OSM
6933514307,Jaya Eye Clinic,clinic,13.0265892,80.2699743,,,,no,OSM
6933522070,Kummaran Eye Speciality Centre,hospital,13.0600349,80.2302911,,,,no,OSM
6933523232,Kvt Health Centre,hospital,13.1282303,80.2421558,,,,no,OSM
6933621323,Maya Nursing Home Pvt Ltd,clinic,13.0313072,80.2097064,,,,no,OSM
6933737012,Ezhil Hospital,hospital,13.1302259,80.2916855,,,,no,OSM
6933746497,Eswari Nursing Home,clinic,13.1165682,80.2263898,,,,no,OSM
6933757130,Premier Health Center,hospital,13.0842489,80.220851,,,,no,OSM
6933770688,Endocrine Diagnostic And Research Centre,laboratory,13.0335088,80.2366854,,,,no,OSM
6933794368,Vasantha Subramanian Hospitals Pvt Ltd,hospital,13.0731975,80.2527237,,,,no,OSM
6933802716,"Vasan Eye Care Hospital, Tondiarpet",hospital,13.1109009,80.2812195,,,,no,OSM
6933828333,Madras Poly Clinic and R.R. Scan,hospital,13.0461063,80.2220044,,,,no,OSM
6933833912,Lister Nursing Home,clinic,13.0644964,80.2730508,,,,no,OSM
6933833922,"Lifeline Cliniq , Adyar",clinic,13.0007709,80.2575208,,,,no,OSM
6933833923,Life Medhospital,hospital,13.0535505,80.2576911,,,,no,OSM
6933869777,"K.M. Hospitals, Chennai",hospital,13.0884107,80.2421169,,,,no,OSM
6933875088,Zubeda Hospitals Ltd.,hospital,13.0741955,80.2357775,,,,no,OSM
6933881025,Sree Narayana Nursing Home,clinic,13.1089757,80.2481371,,,,no,OSM
6933910999,RR Multispeciality Hospital,hospital,13.0584745,80.2740124,,,,no,OSM
6933973123,"Dr.N. Nagajothi,M.D",doctors,13.0350165,80.2392798,,,,no,OSM
6933998001,Dr.Manju Kulkarni Hospital,hospital,13.0743836,80.2367672,,,,no,OSM
6934018827,Vaman Clinic Eye and Ent Care,clinic,13.0388943,80.2137016,,,,no,OSM
6934018868,S.V. Bone And Joint Hospital,hospital,13.0473239,80.2241461,,,,no,OSM
6934018874,S.S Nursing Home,clinic,12.969346,80.2573344,,,,no,OSM
6934036697,Sri Eshodha Hospital,hospital,13.0981213,80.2362643,,,,no,OSM
6934061609,Srichakara Multispeciality Hospital,hospital,12.97853,80.1851381,,,,no,OSM
6934089837,"Peoples Nursing Home, Chennai",clinic,13.0696298,80.2159499,,,,no,OSM
6934098007,Abhijay Hospital,hospital,13.1160177,80.2328438,,,,no,OSM
6934146446,"Sinus And Nose Hospital - Mylapore, Chennai",hospital,13.0350623,80.2778479,,,,no,OSM
6934163318,Sibi Hospital,hospital,12.9697917,80.1904562,,,,no,OSM
6934172291,"Shyamala Nursing Home, Chennai",clinic,13.1101185,80.2819745,,,,no,OSM
6934186203,Sri Venkateshwara`s C.M. Hospital,hospital,12.9857914,80.185987,,,,no,OSM
6934246102,Srinivas Priya Hospital (P) Ltd,hospital,13.1100467,80.2466847,,,,no,OSM
6934271069,"M.R. Hospital, Chennai",hospital,13.0725279,80.2195783,,,,no,OSM
6934271075,M. N. Orthopaedic Hospital,hospital,13.0810328,80.2336653,,+914426442279,,yes,OSM
6934271106,M V Hospital For Diabetes Pvt Ltd,hospital,13.1121574,80.2956927,,,,no,OSM
6934271111,M N Eye Hospital,hospital,12.996767,80.2603599,,,,no,OSM
6934301423,"A.V. Hospital, Chennai",hospital,13.1170802,80.2864189,,,,no,OSM
6934325847,N.K Clinic,clinic,12.998194,80.2079885,,,,no,OSM
6934325848,N.R. Hospital,hospital,13.1122162,80.2309737,,,,no,OSM
6934325849,N.R. Medical Home Private Limited,hospital,13.0965878,80.2597135,,,,no,OSM
6934325866,Nagamani Hospitals Private Limited,hospital,13.117412,80.289427,,,,no,OSM
6934325876,Nalamm Hospital Pvt Ltd,hospital,13.1184216,80.2610184,,,,no,OSM
6934325881,Nambi Nursing Home and Research Centre,clinic,13.0576423,80.2723642,,,,no,OSM
6934325882,Nandalala Medical Foundation,hospital,13.0328516,80.2615173,,,,no,OSM
6934326572,Sri Kumaran Health Centre,hospital,13.1308907,80.2138799,,,,no,OSM
6934340587,Nandambakkam Dispensary,clinic,13.0154215,80.1932403,,,,no,OSM
6934340601,Nandhini Hospital,hospital,12.9784706,80.2247932,,,,no,OSM
6934340623,Navasuja Sankara Nethralaya,hospital,13.0265108,80.2607878,,,,no,OSM
6934340638,Neomed Hospital - Chennai,hospital,13.083452,80.2030747,,,,no,OSM
6934340658,"New Balaji Hospital, Chennai",hospital,13.0316469,80.2311185,,,,no,OSM
6934340659,New Hope Indian Specilaity Hospital,hospital,13.0777579,80.2414826,,,,no,OSM
6934340664,New Hope Medical Centre Pvt. Ltd,hospital,13.0776821,80.2415201,,,,no,OSM
6934340665,Nichani Health Centre,hospital,13.111251,80.2940284,,,,no,OSM
6934340684,Nungambakkam Dispensary CandB Block,clinic,13.0666173,80.2481747,,,,no,OSM
6934340749,Orthopedic and Specialities Hospital,hospital,13.0390564,80.2086724,,,,no,OSM
6934340750,Padma Clinic And Nursing Home,clinic,13.0768865,80.2351539,,,,no,OSM
6934340766,Padmapriya Hospital Pvt. Ltd.,hospital,12.9996223,80.2537027,,,,no,OSM
6934340781,Palani Balaji Fertility Centre,hospital,13.0122123,80.2235084,,,,no,OSM
6934340782,Pallava Hospital,hospital,13.0420391,80.2126005,,,,no,OSM
6934340783,P&G Nursing Home,clinic,13.0479576,80.2124181,,,,no,OSM
6934340789,Pankajam Memorial Hospital,hospital,12.9801472,80.1835965,,,,no,OSM
6934347087,Apollo Childrens Hospital,hospital,13.060131,80.2523656,,,,no,OSM
6934347093,Anuradha Maternity Centre,hospital,13.0356881,80.2337551,,,,no,OSM
6934407803,Shri Balaji Hospital - Chennai,hospital,13.0919709,80.2511633,,,,no,OSM
6934408780,Shree Sai Krupa Dental Care,dentist,13.0373853,80.2318856,,,,no,OSM
6934477070,Shivas Eye Care,clinic,13.0939374,80.2008538,,,,no,OSM
6934610015,Shepherd Nursing Home,clinic,13.1255776,80.2260934,,,,no,OSM
6934689509,Perambur Dispensary,clinic,13.0976393,80.2594614,,,,no,OSM
6934897845,Tamil Nadu Urological Research Centre,hospital,13.0710341,80.222632,,,,no,OSM
6934912413,Vhs Diabeted Research Centre,clinic,13.0029165,80.2463347,,,,no,OSM
6935067323,Ponraj Eye Clinic,clinic,12.9892035,80.2554783,,,,no,OSM
6935159758,Thirimoorthys Heart Care Hospital,hospital,12.9673347,80.1867983,,,,no,OSM
6935224404,"Thulasi Krishna Nursing Home, Kodambakkam",hospital,13.0517176,80.2300054,,,,no,OSM
6935248992,Star Bone Joint Center,clinic,13.0633102,80.2743041,,,,no,OSM
6935272552,Dr. Agarwal's Eye Hospital,hospital,13.074266,80.2382156,,,Dr. Agarwal's Eye Hospital,no,OSM
6935274089,Selvarangam Hospital,hospital,13.0850183,80.2244673,,,,no,OSM
6936134771,"Sankara Nethralaya, Chennai",hospital,13.0670837,80.2505444,,,,no,OSM
6936147552,Akn Nursing Home,clinic,13.0836428,80.2462569,,,,no,OSM
6936147848,Sampat Nursing Home,clinic,13.0365779,80.2728282,,,,no,OSM
6936271569,Sri Lakshmi Multi Speciality Hospital Pvt Ltd,hospital,12.9640779,80.2461429,,,,no,OSM
6936275517,Dr Agarwal Eye Hospital Ltd,hospital,13.1135903,80.2270764,,,,no,OSM
6936310669,Sulochana Dental Care Center,dentist,13.0404661,80.2244103,,,,no,OSM
6936316468,Tosh Hospitals Private Limited,hospital,13.0827016,80.2424652,,,,no,OSM
6936324681,Dr Vas Dental Clinic,clinic,13.0341895,80.2325615,,,,no,OSM
6936339695,Sundaram Cancer Centre,hospital,13.07604,80.2366224,,,,no,OSM
6936339711,R.R. Eye Instutute and Laser Foundation,hospital,13.0483992,80.2040416,,,,no,OSM
6936339747,Rajalakshmi Nursing Home,clinic,13.084629,80.2247456,,,,no,OSM
6936339753,Rajan Dental Institute Pvt. Ltd.,dentist,13.0439283,80.2727732,,,,no,OSM
6936339822,Avm Medical Ent Research Foundation Pvt Ltd,hospital,13.0441485,80.2637114,,,,no,OSM
6936356289,"Aditya Hospital, Chennai",hospital,13.0806801,80.2486159,,,,no,OSM
6936359923,Laser and Laparascopic Hospital,hospital,13.0430125,80.2371521,,,,no,OSM
6936359940,Lakshmi Maternity Hospital,hospital,12.9938673,80.2528444,,,,no,OSM
6936359972,Kumaran Hospital Pvt.Ltd.,hospital,13.0790289,80.2490893,,,,no,OSM
6936359973,Kumaran Diagnostic Centre,laboratory,12.9833542,80.2220687,,,,no,OSM
6936359992,Kts Nursing Home,clinic,13.1225671,80.224244,,,,no,OSM
6936391765,Apollo Specialty Hospitals Private Limited,hospital,13.0177957,80.2711008,,,,no,OSM
6936395127,Darshan Eye Clinic,clinic,13.0883153,80.2162363,,,,no,OSM
6936411410,Deepam Eye Hospital,hospital,13.0877615,80.2423476,,,,no,OSM
6936415699,Dr. A. Ramachandran's Diabetes Hospital,hospital,13.0685338,80.2579902,,,,no,OSM
6936469837,Veecare Eye Hospital,hospital,13.0843952,80.2182426,,,,no,OSM
6936488132,Sanjeevini Nursing Home,clinic,13.1169712,80.2883984,,,,no,OSM
6936663153,Velachery K S Hospital,hospital,12.9763914,80.2114016,,,,no,OSM
6936663164,Vasantha Nursing Home,clinic,13.1168268,80.2876957,,,,no,OSM
6936669886,K.J. Hospital,hospital,13.0790015,80.25267,,,,no,OSM
6936681265,Sathya Physiotherapy Centre,hospital,13.0440365,80.2336198,,,,no,OSM
6936681271,Sri Balaji Ent And Maternity Clinic,clinic,13.0257935,80.2227634,,,,no,OSM
6936684311,Kensington Hospital,hospital,13.0788382,80.2469368,,,,no,OSM
6936684328,Ponmalligai Hospital Pvt Ltd,hospital,12.9925116,80.2061465,,,,no,OSM
6936684391,Pdr Othopaedic Hospital,hospital,13.0389519,80.2290894,,,,no,OSM
6936695126,E V Kalyani Medical Centre,hospital,13.0427786,80.2706811,,,,no,OSM
6936695137,Vijay's Nursing Home,clinic,13.0266147,80.2283525,,,,no,OSM
6936695172,Yogi Vedha Kumari Hospital,hospital,13.0269877,80.2631588,,,,no,OSM
6936695177,Xcellent Care Superspeciality Hospital,hospital,12.9833895,80.2181782,,,,no,OSM
6936695178,Women and Children Foundation,hospital,13.0478465,80.2329075,,,,no,OSM
6936695225,Sucha Eye Cure,clinic,13.0390577,80.1931438,,,,no,OSM
6936695226,"Sudha Hospital, Chennai",hospital,13.0791504,80.2541493,,,,no,OSM
6936696196,V.K. Hospital,hospital,13.0816938,80.2522811,,,,no,OSM
6936696229,U.K. Hospitals Pvt. Ltd.,hospital,13.0838857,80.2252632,,,,no,OSM
6936696239,"Trust Hospital, Chennai",hospital,13.0892193,80.2415402,,,,no,OSM
6936696240,Titan Eye,hospital,13.082343,80.2076291,,,,no,OSM
6936708005,Sai Ortho Care Hospital,hospital,13.0332775,80.2371645,,,,no,OSM
6936708989,Sooriya Hospital,hospital,13.0481888,80.2035199,,,,no,OSM
6936709005,Amruth Siddha and Ayurvedic Clinic,clinic,13.097668,80.2415751,,,,no,OSM
6936709049,Siva Sakthi Nursing Home,clinic,13.0607823,80.2217676,,,,no,OSM
6936709086,Centre For Blood Disorders,hospital,13.0496502,80.2410582,Habibullah Road,+91 44 2834 0668;+91 44 2834 5161,,no,OSM
6936709093,Csm Nursing Home,clinic,13.037934,80.2170509,,,,no,OSM
6936738654,Roselin Gandhi Hospital,hospital,13.1166714,80.2803303,,,,no,OSM
6936854953,Sree Sai Krishna Poly Clinic Hospital,clinic,13.0838165,80.236031,,,,no,OSM
6936874933,Paterson Cancer Center / Vijaya Health Centre Premises,hospital,13.0475826,80.2069719,,,,no,OSM
6936891601,Aarthi Scans,clinic,13.0346684,80.2576784,,,,no,OSM
6936953154,Fertility Research Centre,hospital,13.0558855,80.2481343,,,,no,OSM
6936976871,Spot Hospital,hospital,13.047269,80.2187347,,,,no,OSM
6936994823,B B Hospital,hospital,13.1184203,80.204346,,,,no,OSM
6937025938,Sri Visa Clinic,clinic,13.0312145,80.2321847,,,,no,OSM
6937055902,Appasamy Krishna Hospital and Medical Research Centre,hospital,12.9758647,80.2205016,,,,no,OSM
6937067452,"Medindia Hospitals, Chennai",hospital,13.0606718,80.2432201,,,,no,OSM
6937320470,Rudhra-Chella Clinicare`N`Cure Services,hospital,13.1228878,80.293498,,,,no,OSM
6937351599,K.K.R. ENT Hospital and Research Institute(P) Ltd,hospital,13.0781955,80.2452886,Poonamalee High Road,+91 44 2641 1444,,no,OSM
6937390213,Sri Hari Clinic,clinic,13.0352086,80.2164307,,,,no,OSM
6937420406,Sri Viveka Institute Of Dental Health,dentist,13.0438892,80.2387923,,,,no,OSM
6937434309,"Srinivasa Hospital P P N, Chennai",hospital,13.0503377,80.2299377,,,,no,OSM
6937467152,Gastro Cre Hospital,hospital,13.0394065,80.2507684,,,,no,OSM
6937478253,Dr. A.G. Arumugam Nursing Home,clinic,13.0768382,80.2354315,,,,no,OSM
6937497904,Aaditya Kamaraja Eye Hospital,hospital,13.0463676,80.1865241,,,,no,OSM
6937570093,Dr Ravishankars Eye Clinic and Nursing Home,clinic,13.0872141,80.2596062,,,,no,OSM
6937594692,Seethapathy Nursing Home,clinic,13.0489087,80.2645898,,,,no,OSM
6950288001,Sahishnatha Indtitute Of Maternal And Child Health,hospital,12.9531897,80.2541614,,,,no,OSM
7045971385,Unnamed,pharmacy,13.0025112,80.2568577,,,,no,OSM
7045972385,Unnamed,pharmacy,12.9909409,80.256108,,,,no,OSM
7099721389,Unnamed,pharmacy,13.0063273,80.2567379,,,,no,OSM
7169412006,Sri Kandan Medicals,pharmacy,13.0105569,80.1960206,,,,no,OSM
7169425322,Patanjali Pharmacy,pharmacy,13.0109087,80.1961641,"# 101 , Butt Road, Defence Colony 1st Ave, Ravi Colony, St.Thomas Mount, Tamil Nadu 600016",,,no,OSM
7177259685,Unnamed,dentist,12.9751829,80.1956824,,,,no,OSM
7177268687,Glow Dental,dentist,12.9739445,80.1916658,,,,no,OSM
7181579342,Adyar Dispensary,clinic,12.991685,80.2533312,,,,no,OSM
7181684162,Siva E N T Hospital,hospital,13.0619796,80.2741693,,,,no,OSM
7181711080,"Vinayagam Laser Hospital, Chennai",hospital,13.0476113,80.2650954,,,,no,OSM
7181721033,"Dr Agarwals Eye Hospital, Triplicane",hospital,13.0524884,80.2736449,,,,no,OSM
7181722911,"Dr.Agarwal's Eye Hospital Ltd., Gopala Puram",hospital,13.0432085,80.259169,,,Dr. Agarwal's Eye Hospital,no,OSM
7181734862,Dr. M. Mohamed Meeran Clinic,clinic,13.1216418,80.2436035,,,,no,OSM
7181744123,Ramarau Polyclinic,clinic,13.0782438,80.2456386,,,,no,OSM
7181748147,Bharani Hospital,hospital,13.0380111,80.2013205,,,,no,OSM
7181812928,K.K. Nagar Dispensary and Polyclinic,clinic,13.0368,80.2079107,,,,no,OSM
7194755479,Rajiv Scans,laboratory,13.0675771,80.2580238,,,,no,OSM
7210884259,Fortis Vadapalani Hospital,hospital,13.0475131,80.2042733,,,,no,OSM
7210895386,Tamil Nadu Urological Research Centre Best Kidney Stone Clinic,hospital,13.0748708,80.2147555,,,,no,OSM
7210911300,Sri Ranga Hospitals,hospital,13.0290525,80.2636265,,,,no,OSM
7210948177,Chamiers Day Care Center,hospital,13.0297278,80.2446245,,,,no,OSM
7213394742,London Harley Street Women And Fertility Centre,hospital,12.9609724,80.2421492,,,,no,OSM
7213449201,Doctor kannan,doctors,13.0032895,80.25373,,,,no,OSM
7213449202,Gas Hospital,hospital,13.003026,80.2540981,,,,no,OSM
7213449203,Adyar Ortho Clinic,clinic,13.0017764,80.2518544,,,,no,OSM
7213449204,Siloam Hospital,clinic,13.0012776,80.2498239,,,,no,OSM
7213449205,Dr VK Jayalakshmi - Vishnu Fertility Centre,clinic,13.0015495,80.2497784,,,,no,OSM
7213492568,Dr.Bala Subramanian,hospital,13.0465056,80.2423799,,,,no,OSM
7213542263,Central Government Health Scheme Dispensary & Health Scheme,centre,13.0888482,80.2046966,,,,no,OSM
7252256149,"UHP, Kodungaiyur 1",centre,13.13478,80.243553,,,,no,OSM
7252256159,Shri Pooja Maternity Clinic,clinic,13.1308512,80.2517777,,,,no,OSM
7252256169,Jeeva Nagar North UPHC,centre,13.13262,80.2863,,,,no,OSM
7252256177,Swasthik Health Care center,hospital,13.1297134,80.2506039,,,,no,OSM
7252256184,NRV Hospital,hospital,13.13468,80.243196,,,,no,OSM
7252256214,"UHP, Kodungaiyur 2",centre,13.13079,80.258508,,,,no,OSM
7252333312,Irch Uhp,centre,13.1044386,80.2748161,,,,no,OSM
7252333313,Korukkupet UPHC,centre,13.1228129,80.2870743,,,,no,OSM
7252333314,Govt Kilpauk Medical College Hospital,hospital,13.07832,80.243753,,,,no,OSM
7252333316,Sakthi Nursing Home,clinic,13.0583373,80.2012267,,,,no,OSM
7252333318,Rasi Hospital,hospital,13.12038,80.285818,,,,no,OSM
7252333320,Government Maternity And Child Hospital,hospital,13.0991743,80.2301988,,,,no,OSM
7252333321,Cloudnine Hospital - Chennai,hospital,13.0433937,80.2461174,,,,no,OSM
7252333322,Mangalapuram PHC,centre,13.0731831,80.2429769,,,,no,OSM
7252333324,Krishnampet UPHC,centre,13.0528882,80.2621371,,,,no,OSM
7252333327,Virugambakkam PHC,centre,13.051891,80.1968567,,,,no,OSM
7252333328,Sembium PHC,centre,13.11399,80.235509,,,,no,OSM
7252333329,Nallankuppam UPHC,centre,13.04065,80.21578,,,,no,OSM
7252333330,Shifa Hospital And Reasearch Centre,hospital,13.061988,80.2745135,,,,no,OSM
7252333333,Siva Sakthi Nursing Home,clinic,13.0605437,80.2217663,,,,no,OSM
7252333334,S.M.Nagar PHC,centre,13.0482814,80.2353519,,,,no,OSM
7252333337,Govt. Stanley Hospital,hospital,13.10618,80.286804,,,,no,OSM
7252333338,Urban Primary Health Center,centre,13.1231681,80.2529369,,,,no,OSM
7252333339,Zambazar PHC,centre,13.0551882,80.2603077,,,,no,OSM
7252333340,Nagammaiar Nagar North PHC,centre,13.1008845,80.2383559,,,,no,OSM
7252333341,Subam Specialities Hospitals,hospital,13.0469783,80.1895003,,,,no,OSM
7252333342,Pudupet PHC,centre,13.0711841,80.2679271,,,,no,OSM
7252333343,Kts Nursing Home,clinic,13.12222,80.223972,,,,no,OSM
7252333344,UPHC Vadapalani West,centre,13.05381,80.20915,,,,no,OSM
7252333345,Choolai UPHC,centre,13.091086,80.2656825,,,,no,OSM
7252333347,Govt Peripheral Hospital Periyar Nagar,hospital,13.1153048,80.2233851,,,,no,OSM
7252333348,Perumalpet PHC,centre,13.0887868,80.2566885,,,,no,OSM
7252333349,Be Well Hospital,hospital,13.0431134,80.2453103,,,,no,OSM
7252333352,Hera Hospital,hospital,13.0508643,80.1922458,,,,no,OSM
7252333353,SBS Hospital Nursing Home,clinic,13.05943,80.194729,,,,no,OSM
7252333354,Government Unani Hospital,hospital,13.1129012,80.2957982,,,,no,OSM
7252333356,Meenakshi Hospital & Childrens Hospital,hospital,13.0586646,80.2428501,,,,no,OSM
7252333358,"PHC, Shenoy Nagar",centre,13.0776301,80.2259431,,,,no,OSM
7252333360,Subam Clinic,clinic,13.05774,80.273916,,,,no,OSM
7252333362,"PHC, Kolathur",centre,13.1190934,80.2066309,,,,no,OSM
7252333365,Sanjeevirayanpet UHP,centre,13.1186161,80.2873816,,,,no,OSM
7252333370,Periyar Thidal PHC,centre,13.0859683,80.2633216,,,,no,OSM
7252333371,Hiba Hospital,hospital,13.0616195,80.275793,,,,no,OSM
7252333372,A.R.A Hospital For Women,hospital,13.0508818,80.2735131,,,,no,OSM
7252333375,Priyas Medical Centre,hospital,13.0594024,80.1954415,,,,no,OSM
7252333376,"PHC, Kondithope",centre,13.1043408,80.2743222,,,,no,OSM
7252333377,Villiwakkam PHC,centre,13.0999769,80.2011892,,,,no,OSM
7252333378,Dr. Rai Memorial Medical Centre,hospital,13.044837,80.2475507,,,,no,OSM
7252333380,Medway Hospitals,hospital,13.0535971,80.2275376,,,,no,OSM
7252333381,Seven Wells Hospital,hospital,13.0993782,80.2825418,,,,no,OSM
7252333383,Government Hospital,hospital,13.068807,80.2672078,,,,no,OSM
7252333384,Ranga Nursing Home,clinic,13.1192346,80.2857643,,,,no,OSM
7252333388,Standard Hospital,hospital,13.0524675,80.1898468,,,,no,OSM
7252333389,Chennai Corporation Hospital,hospital,13.1142928,80.2844517,,,,no,OSM
7252333390,Guru Raghavendra Hospital,hospital,13.0410091,80.1964532,,,,no,OSM
7252333391,RIDA Physiotherapy Clinic,clinic,13.0621485,80.2745047,,,,no,OSM
7252333393,Urban Primary Health Centre,centre,13.0855035,80.2396927,,,,no,OSM
7252333394,Seethapathy clinic & Hospital,hospital,13.0487028,80.2645448,,,,no,OSM
7252333396,Kvt Health Speciality Hospital,hospital,13.1267531,80.2489796,,,,no,OSM
7252333397,Sakthi Hospital &Reasearch Centre Helath Care Organization,hospital,13.0572714,80.2757357,,,,no,OSM
7252333398,Women And Children Foundation Hospitals T-Nagar,hospital,13.0480821,80.2329957,,,,no,OSM
7252333402,Annai multispeciality hospital,hospital,13.0538856,80.1927125,,,,no,OSM
7252333403,Firm Hospital,hospital,13.0916464,80.2139939,,,,no,OSM
7252333406,The Best Hospital Private Ltd,hospital,13.0535089,80.2195494,,,,no,OSM
7252333407,Chennai Corporation Hospital,hospital,13.0887,80.256712,,,,no,OSM
7252333408,M.M.D.A. Colony UPHC,centre,13.0665829,80.2136697,,,,no,OSM
7252333409,Triplicane Government Hospital,hospital,13.060986,80.2747981,,,,no,OSM
7252333411,Urban Public Health Center,centre,13.0511322,80.2190929,,,,no,OSM
7252333413,Hemakamal Nursing Home,clinic,13.1069544,80.2796126,,,,no,OSM
7252333414,Mirsh Aibpet PHC,centre,13.05073,80.2722891,,,,no,OSM
7252333415,Vyasarpadi North PHC,centre,13.1245741,80.2625243,,,,no,OSM
7252333416,Government Hospital For Ladies And Children,hospital,13.0590564,80.1928218,,,,no,OSM
7254940229,Dr. Premkumar's Orthopedic Clinic,clinic,13.0566709,80.2350491,,,,no,OSM
7255706468,SIMS Hospital,hospital,13.0561828,80.2478331,,,,no,OSM
7255751980,Human Health,laboratory,13.0538477,80.2494072,,,,no,OSM
7257289029,Semmancheri PHC,centre,12.8751861,80.2106332,,,,no,OSM
7257289075,Primary Health Centre,centre,12.9142715,80.1918308,,,,no,OSM
7257289123,Suraj Hospital,hospital,12.9107782,80.1967559,,,,no,OSM
7257421528,"Urban Primary Health Center, Mugalivakkam",hospital,13.0209496,80.1670655,"Vembadi Vinayakar Koil Rd, Dhanam Nagar",,Government of Tamil Nadu,no,OSM
7257421531,Shree Chakra Maternity Clinic and Nursing Home,clinic,13.0348047,80.2246285,,,,no,OSM
7257421536,Kavitha Clinic,clinic,13.0340836,80.2419057,,,,no,OSM
7257421538,"Palavanthangal, UPHC",centre,12.9881799,80.1894953,,,,no,OSM
7257421540,Sunrays Laproscopic Centre,hospital,13.0319129,80.2099892,,,,no,OSM
7257421541,Hirsh Nursing Home,clinic,13.0298958,80.1911357,,,,no,OSM
7257421543,Acharya Clinic,clinic,12.9854281,80.192207,,,,no,OSM
7257421548,Okkiyamthuraipakkam PHC,centre,12.9485752,80.2410198,,,,no,OSM
7257421551,Kotturpuram UPHC,centre,13.0230199,80.2401457,,,,no,OSM
7257421555,Arun Hospital,hospital,12.9408644,80.1828683,,,,no,OSM
7257421557,Motherhood Hospital,hospital,13.0312006,80.2511993,,,,no,OSM
7257421559,"Government Hospital, Adyar",hospital,12.9979497,80.2562121,,,,no,OSM
7257421565,"UPHC, Nanganallur",centre,12.97456,80.18147,,,,no,OSM
7257421569,Gunasekaran Hospitals Pvt.Ltd,hospital,13.0374624,80.2389389,,,,no,OSM
7257421571,Saidapet West PHC,centre,13.0204311,80.2240903,,,,no,OSM
7257421572,Moovarasampet Primary Health Center (PHC),centre,12.9694033,80.1851002,Kulakkarai Street,,Government of Tamil Nadu,no,OSM
7257421581,VHS PHC,centre,13.00279,80.24698,,,,no,OSM
7257421583,Kumaran Specialities Hospital,hospital,13.03968,80.21204,,,,no,OSM
7257421584,Thiruvanmiyur PHC,centre,12.98032,80.256452,,,,no,OSM
7257421585,Saidapet PHC,centre,13.0283419,80.2162268,,,,no,OSM
7257421586,Arokiya hospital,hospital,13.0374234,80.190944,,,,no,OSM
7257421591,"PHC, Beemannanpet",centre,13.0353537,80.250612,Thiruvalluvar Salai,,,no,OSM
7257421592,UCHC Perungudi,centre,12.96558,80.2425099,,,,no,OSM
7257421593,Genesis Womens Hospital,hospital,13.034922,80.2465468,,,,no,OSM
7257421595,"PHC, Arambakkam",centre,12.9895104,80.2087752,,,,no,OSM
7257421596,Radhatri Nethralaya,hospital,13.0342203,80.2398192,,,,no,OSM
7257421599,"Adambakkam, UPHC",centre,12.9888801,80.2063149,,,,no,OSM
7257421601,Kavery Hospital,hospital,13.038362,80.2572398,,,,no,OSM
7257421602,Kanamapet Government Hospital,hospital,13.0298989,80.2261208,,,,no,OSM
7257421603,Sri Sai Krs Hospital,hospital,13.037967,80.2162727,,,,no,OSM
7257421613,Government Hospital Alandur,hospital,13.0048164,80.2025432,,,,no,OSM
7257421614,Velachery PHC,centre,12.9863165,80.2299051,,,,no,OSM
7257421615,Janani Hospital,hospital,13.0313233,80.1909256,,,,no,OSM
7257421618,Kumaran Nagar UPHC,centre,13.03102,80.224117,,,,no,OSM
7257421619,T.K.R. Hospital,hospital,12.9342227,80.1807557,,,,no,OSM
7257421620,Ram Skin Clinic,clinic,12.9771173,80.2040772,,,,no,OSM
7257545868,Sri Sumathi Vishal Jain Dialysis Centre,dialysis,13.0550736,80.232573,,,,no,OSM
7261129235,Kalyanaraman Consulting Room,doctor,13.084566,80.2335309,,,,no,OSM
7261553318,Padma Chandrasekharan Clinic,doctors,13.0585997,80.2422913,,,Dr. S. Chandrasekharan,no,OSM
7263990020,Pulp Dental Hospital,dentist,13.054776,80.2499299,,,,no,OSM
7312136856,Scans World,laboratory,13.0570676,80.2436601,,"044 4000 0008, 9791007777",,no,OSM
7320948885,Unnamed,hospital,13.0753606,80.21879,,,,no,OSM
7652449745,Apollo Pharmacy,pharmacy,12.964259,80.1981286,"Sabari Salai, Madipakkam",,,no,OSM
7658575241,Annai Pharmacy,pharmacy,12.967751,80.2375289,,,,no,OSM
7677310685,Unnamed,dentist,13.1057366,80.2076677,South Mada St,9688867716,,no,OSM
7822259982,Radha Nantha Homeo Clinic,clinic,12.9146216,80.1945162,,,,no,OSM
7822259983,Orange Physiotherapy and Pain Relief Clinic,clinic,12.9151632,80.1790739,,,,no,OSM
7822259984,Deepam Rehabilitation Centre,hospital,12.9163865,80.1789307,,,,no,OSM
7822259985,Sri Kumaran Clinic,clinic,12.9428602,80.2370143,,,,no,OSM
7822259986,HCL Health Care,hospital,12.9044723,80.216804,,,,no,OSM
7822259988,Subasree Hospital,hospital,12.916822,80.1940932,,,,no,OSM
7822259989,Jayadeva Fertility Centre and Women's Hospital,clinic,12.9347551,80.2327258,,,,no,OSM
7822259990,GV's Good Health Centre,clinic,12.9458692,80.2361968,,,,no,OSM
7822259991,Kanmani Children Clinic,clinic,12.9178805,80.1874461,,,,no,OSM
7822259992,Centre For Vision and Eye Surgery,hospital,12.8948311,80.2233057,,,,no,OSM
7822259993,Kavi Dental Clinic,dentist,12.9113075,80.1962603,,,,no,OSM
7822259995,Shri Sai Children's Hospital and Dental Clinic,hospital,12.912214,80.229384,,,,no,OSM
7822259996,Sara Skin Clinic,clinic,12.933657,80.233537,,,,no,OSM
7822259997,Anto Speciality Clinic,clinic,12.9163132,80.1902143,,,,no,OSM
7822259998,Eashwar Multispeciality Clinic,clinic,12.9338927,80.2355344,,,,no,OSM
7822259999,Homeopathic Clinic,clinic,12.9142526,80.1823512,,,,no,OSM
7822260000,Rithika Netralaya Eye Clinic,clinic,12.9131433,80.1918203,,,,no,OSM
7822260001,Sri Balaji Hospital,hospital,12.9178242,80.190331,,,,no,OSM
7822260004,S.V. Hospital,hospital,12.9069075,80.2026845,,,,no,OSM
7822260006,Tharamai Child Care Clinic,clinic,12.9020392,80.2326608,,,,no,OSM
7822260008,Apollo White Dental Clinic and Hospital,dentist,12.9150815,80.2297731,,,,no,OSM
7822260009,SV Hospital,hospital,12.9319677,80.2326252,,,,no,OSM
7822260010,Apollo Clinic,clinic,12.9337566,80.2331464,,,,no,OSM
7822260012,Dr. Nithiya Clinic,clinic,12.8994432,80.228171,,,,no,OSM
7822260016,Karthick Children's Hospital,hospital,12.9123221,80.192466,,,,no,OSM
7822260017,Arun Hospital,hospital,12.9149784,80.1948032,,,,no,OSM
7822260018,Radial Ortho Speciality Hospital,hospital,12.9131978,80.1915965,,,,no,OSM
7822260020,Rayar Clinic,clinic,12.9424446,80.2397616,,,,no,OSM
7822260021,Jayam Hospital,hospital,12.9498749,80.2381651,,,,no,OSM
7822260022,Dr. Hema's Skin and Hair Clinic,clinic,12.9164281,80.1939427,,,,no,OSM
7822260023,Vaibhav Dental Care,dentist,12.9162911,80.1747091,,,,no,OSM
7822260024,U.P. Clinic,clinic,12.9144308,80.194535,,,,no,OSM
7822260025,Maternity and Child Care Hospital,hospital,12.9164866,80.1896622,,,,no,OSM
7822260026,Green Land Heart Care Clinic,clinic,12.9162677,80.1921012,,,,no,OSM
7822260028,H.K. Clinic,clinic,12.9334179,80.2344666,,,,no,OSM
7822260032,Shri Balaji Diabetes Hospital,hospital,12.9150069,80.1929516,,,,no,OSM
7822260033,Dhanvantri Multi Speciality,hospital,12.9402236,80.2412342,,,,no,OSM
7822260035,Mr. and Mrs. Tooth Dental Hospital,dentist,12.9008257,80.2268213,,,,no,OSM
7822260038,Annai Teresa Hospital,hospital,12.9184999,80.1892056,,,,no,OSM
7822260039,Dr. Kamakshi Multi Speciality Clinic,clinic,12.9188404,80.1874984,,,,no,OSM
7822260041,Xpressions Dental Hospital,dentist,12.9171051,80.1912712,,,,no,OSM
7822260044,Swaram Hospital and Speciality Clinic,hospital,12.9011793,80.2286,,,,no,OSM
7822260045,Urban Primary Health Centre,centre,12.9124579,80.1965795,,,,no,OSM
7822260046,Angel Child Clinic,clinic,12.9330206,80.2345155,,,,no,OSM
7822260047,"Neurologist, Praveen Chander Clinic",clinic,12.9161405,80.1903834,,,,no,OSM
7822260048,Cure and Care Family Clinic,clinic,12.9136451,80.2321791,,,,no,OSM
7822260049,Danta Raksha Dental Clinic,dentist,12.9111935,80.1963279,,,,no,OSM
7822260050,Dr. S. Arul Anne Rose,doctors,12.915688,80.190125,,,,no,OSM
7822260051,C-Dot Hospital,hospital,12.9072738,80.2027359,,,,no,OSM
7822260053,Dr. Prabha Dental Clinic,dentist,12.9153217,80.1792023,,,,no,OSM
7822260054,KL Hospital,hospital,12.9006729,80.2283278,,,,no,OSM
7822260055,Mugavari Eye Hospital and Research Institute,hospital,12.9167105,80.1921463,,,,no,OSM
7822260056,Global Hospital,hospital,12.9060064,80.2072713,,,,no,OSM
7822543398,Om Sakti Clinic,clinic,12.9388007,80.1792831,,,,no,OSM
7822543401,Kumaran Dental Centre,dentist,12.9393531,80.1823041,,,,no,OSM
7822543403,Sri Vinayaga Clinic,clinic,12.9208368,80.2015489,,,,no,OSM
7822543407,Dr. Abdul Wahadood,doctors,12.9392317,80.1823305,,,,no,OSM
7822543409,Meena Clinic,clinic,12.9370245,80.1820574,,,,no,OSM
7822543411,S.M Clinic,clinic,12.9308777,80.2078664,,,,no,OSM
7822543413,Cuticle Skin Care Clinic,clinic,12.928255,80.202681,,,,no,OSM
7822543414,Mile Stone Dental Care,dentist,12.9388556,80.1758632,,,,no,OSM
7822543415,Radial Ortho Clinic,clinic,12.934049,80.203583,,,,no,OSM
7822543420,Bethany Physiotherapy Centre,clinic,12.928455,80.2026963,,,,no,OSM
7822543421,Dr. Shakuntala Venkatesh Nursing Home,clinic,12.935226,80.183132,,,,no,OSM
7822543422,Janya Child Clinic,clinic,12.9287243,80.2008099,,,,no,OSM
7822543424,Dr. Velmurugan Hospital,hospital,12.9296419,80.2029589,,,,no,OSM
7822543425,Shree's Women Speciality Clinic,clinic,12.926507,80.2017237,,,,no,OSM
7822543430,AM Hospital,hospital,12.9344546,80.1819961,,,,no,OSM
7822543431,Al-Aafiyah Clinic,clinic,12.9280018,80.2051951,,,,no,OSM
7822543435,Vinu's Smile Care Dental Clinic,dentist,12.924912,80.2045196,,,,no,OSM
7822543437,Star Dental Care and Implant Centre,dentist,12.9351033,80.1824847,,,,no,OSM
7822543438,Inbam Hospital,hospital,12.9339688,80.2041509,,,,no,OSM
7822543440,Kiruba Clinic,clinic,12.928347,80.202855,,,,no,OSM
7822543442,Mangalaa Dental Clinic,dentist,12.9382376,80.2090817,,,,no,OSM
7822543444,Hindusthan Hospital,hospital,12.9393514,80.1806898,,,,no,OSM
7822543445,Sneham Clinic,clinic,12.935996,80.204033,,,,no,OSM
7822543446,Mother's Clinic,clinic,12.9349376,80.1825784,,,,no,OSM
7822543452,RKP Hospital,hospital,12.9379829,80.1799993,,,,no,OSM
7822543455,Muthu Multi Speciality Hospital and Pharmacy,hospital,12.928263,80.200805,,,,no,OSM
7822543456,Dr. Kumarakrishnan,doctors,12.9267386,80.2017852,,,,no,OSM
7822543458,Dr. Bharati Eye Clinic,clinic,12.9347158,80.1825728,,,,no,OSM
7822543462,Rekha Multi Speciality and Dental,dentist,12.9370118,80.1751576,,,,no,OSM
7822543471,Raj Joty Eye Hospital,hospital,12.935221,80.181802,,,,no,OSM
7822543472,Ramya Dental Clinic,dentist,12.938565,80.2074694,,,,no,OSM
7822543478,Hariharan Clinic,clinic,12.9384139,80.1753876,,,,no,OSM
7822543494,Delicare Clinic,clinic,12.9384098,80.2053961,,,,no,OSM
7822543496,Dr. R. Karu Shanmuga Karthik's Bone Joint and Spine Clinic,clinic,12.9393529,80.1831056,,,,no,OSM
7822543501,V Cure Hospital,hospital,12.9280452,80.199546,,,,no,OSM
7822543505,V.S. Hospital,hospital,12.933726,80.1811973,,,,no,OSM
7822543509,Sathish Clinic,clinic,12.934834,80.213342,,,,no,OSM
7823212559,Shakthi Hospital,hospital,12.9753651,80.2543198,,,,no,OSM
7823212560,Best Laser Dental Clinic,dentist,13.0214884,80.166537,,,,no,OSM
7823212563,Sara Dental Care,dentist,12.9762353,80.2595769,,,,no,OSM
7823212565,Dani Physio Clinic,clinic,12.9728845,80.2604704,,,,no,OSM
7823212568,Padmavathi Dental Care,dentist,13.0243553,80.1714555,,,,no,OSM
7823212570,Hale and Healthy Hospitals,hospital,12.9757686,80.2590077,,,,no,OSM
7823212571,Noble Super Speciality Clinic,clinic,12.9752589,80.2594925,,,,no,OSM
7823212572,Turiya Care,clinic,12.9753853,80.2555078,,,,no,OSM
7823212573,Rathna Hospital,hospital,13.0087475,80.1937172,,,,no,OSM
7823212576,S.S. Hospital,hospital,13.0036449,80.2030844,,,,no,OSM
7823212579,Dhanraj Hospital,hospital,13.0017797,80.2033269,,,,no,OSM
7823212581,Nalam Hospital,hospital,13.0164671,80.1772853,,,,no,OSM
7823212588,Healthwise Clinic,clinic,13.0154658,80.1838246,,,,no,OSM
7823212591,Indhu Siddha Ayurveda Clinic,clinic,13.0358366,80.1346656,,,,no,OSM
7823212598,Dr. Aleem's Homoeo Clinic,clinic,12.9653707,80.2591196,,,,no,OSM
7823212607,Promed Hospital,hospital,12.9751423,80.2582571,,,,no,OSM
7823212610,Happy Clinic Hospital,hospital,12.9693629,80.2566138,,,,no,OSM
7823212613,Smiles Nature Cure,clinic,12.9726702,80.2595079,,,,no,OSM
7823212623,Jaya Sri Hospital,hospital,13.0027883,80.207025,,,,no,OSM
7823212624,Kedar Hospital,hospital,13.0441663,80.1364773,,,,no,OSM
7823212626,Zircon Dental Care,dentist,12.9734658,80.255325,,,,no,OSM
7823212631,Kaanthi Makapperu Hospital,hospital,13.003406,80.2063632,,,,no,OSM
7823212633,Medforte Health Care,hospital,12.9700475,80.1499015,,,,no,OSM
7823212640,Contonment Board General Hospital,hospital,12.97059,80.148318,,,,no,OSM
7823415015,Sri Sai Clinic,clinic,12.9829583,80.2539494,,,,no,OSM
7823415016,Shri Gurukrupa Clinic,clinic,12.9962691,80.2638132,,,,no,OSM
7823415017,Dr. Vasantha's Eye Clinic,clinic,13.0221852,80.259708,,,,no,OSM
7823415018,Synapse Pain and Spine Clinic,clinic,12.9956385,80.2660055,,,,no,OSM
7823415019,Dr. S. Nambi,doctors,13.0380247,80.2637952,,,,no,OSM
7823415020,Corporation Hospital,hospital,12.9915347,80.2615046,,,,no,OSM
7823415021,Relief Dental Hospitals,hospital,12.978253,80.258947,,,,no,OSM
7823415022,RR Clinic,clinic,12.9960029,80.2630762,,,,no,OSM
7823415023,Dr. Baranee's Sukra Diabetes Care,clinic,12.9954269,80.2682429,,,,no,OSM
7823415024,Coast Dental Clinic,dentist,12.9846827,80.2553427,,,,no,OSM
7823415025,Best Siddha Clinic,clinic,12.9866722,80.2622141,,,,no,OSM
7823415026,Sri Sarada Ayurveda Clinic,clinic,13.0297211,80.2606156,,,,no,OSM
7823415027,Dr. Parvin,doctors,12.9978756,80.2578474,,,,no,OSM
7823415028,C.M. Dental Clinic,dentist,12.996018,80.2616466,,,,no,OSM
7823415029,Dr. Vasantha Clinic,clinic,13.0292453,80.2602795,,,,no,OSM
7823415030,Drabaranam Pulmonology Clinic,clinic,12.9863661,80.2601508,,,,no,OSM
7823415031,Jeeva ENT Clinic,clinic,12.9796957,80.2595179,,,,no,OSM
7823415032,Dr. Vasanthi Clinic,clinic,13.0544077,80.2779849,,,,no,OSM
7823415033,Accu Hospital,hospital,13.041251,80.267354,,,,no,OSM
7823415034,Nathan Dental Clinic,dentist,12.9957433,80.2651165,,,,no,OSM
7823415035,Leela Eye Clinic,clinic,12.985598,80.2585613,,,,no,OSM
7823415036,The Homeo Clinic,clinic,12.9963121,80.2637162,,,,no,OSM
7823415037,Kalyani Hospital,hospital,13.0512111,80.273209,,,,no,OSM
7823415038,Dr. N. Sekar,clinic,13.0375294,80.2658475,,,,no,OSM
7823415039,Ashwath Health Care,clinic,13.0397241,80.2685888,,,,no,OSM
7823415040,Little Smiles Dental Clinic,dentist,12.9851111,80.2621275,,,,no,OSM
7823415041,Dr. Suseela,doctors,12.9947909,80.2617929,,,,no,OSM
7823415042,Jeyam Gastro Clinc,clinic,12.9962821,80.2641614,,,,no,OSM
7823415043,Rekha Multispeciality Clinic,clinic,12.9940564,80.2694554,,,,no,OSM
7823415044,The Chennai Speciality Clinic,clinic,12.9949549,80.2629482,,,,no,OSM
7823415045,The Madras Pain Clinic,clinic,12.9790513,80.2584981,,,,no,OSM
7823415046,Sai Clinic,clinic,13.042349,80.2664963,,,,no,OSM
7823415047,Akshaya Poly Clinic,clinic,12.9964001,80.2626006,,,,no,OSM
7823415048,Triveni Hospital,hospital,13.0385371,80.2581929,,,,no,OSM
7823415049,SMK Hospital,hospital,12.986383,80.260187,,,,no,OSM
7823415050,Dr. Prema Womens Clinic,clinic,12.9969555,80.2582848,,,,no,OSM
7823415052,K.S. Subramanian Child Specialist,clinic,12.9978588,80.2585578,,,,no,OSM
7823415053,Dr. Kavitha Iyer's Orthodontics & Dental Centre,clinic,12.9832651,80.2559655,,,,no,OSM
7823415054,Dr. Vindhiya,doctors,13.0013115,80.2572335,,,,no,OSM
7823415055,B.K. Clinic,clinic,13.0532206,80.2726053,,,,no,OSM
7823415056,Uma Sankaran Siddha Hospital,hospital,12.9916719,80.2624479,,,,no,OSM
7823415057,Sai Neuro Clinic,clinic,13.0318707,80.2595716,,,,no,OSM
7823415058,Vethathiri Maharishi Siddha Clinic,clinic,12.9815891,80.2643211,,,,no,OSM
7823415059,Vasantha Hospital,hospital,13.0490602,80.2747953,,,,no,OSM
7823415060,Elixir Multi Speciality Centre,clinic,13.034819,80.2580026,,,,no,OSM
7823415061,Orthomed Hospital,hospital,13.0454703,80.2668731,,,,no,OSM
7823415063,Akshi Vision Therapy,clinic,12.994316,80.2661832,,,,no,OSM
7823415064,Remedy Clinic,clinic,12.9767853,80.2587762,,,,no,OSM
7823415065,Mint Hospitals,hospital,13.0013494,80.258796,,,,no,OSM
7823415067,Sri Sai Homoeo Clinic,clinic,12.982038,80.261741,,,,no,OSM
7823415068,Sri Sai Speciality Clinic,clinic,13.0373228,80.2612955,,,,no,OSM
7823415069,R.R. Dental,dentist,12.9867215,80.25497,,,,no,OSM
7823415070,Dr. Suryakumari,doctors,12.9774564,80.2589969,,,,no,OSM
7823415071,Nanthini Speciality Clinic,clinic,12.9964116,80.2642007,,,,no,OSM
7823415072,Appasamy Pillai Bone Setting Clinic,clinic,12.9827116,80.2543207,,,,no,OSM
7823415073,Tharu Clinic,clinic,12.9812766,80.2638733,,,,no,OSM
7823415074,Sujetha Clinic,clinic,12.993602,80.2619646,,,,no,OSM
7823415075,Dr. M G Rajamanickam,doctors,13.0386219,80.261844,,,,no,OSM
7823415076,Dr. K.Chandra ENT Clinic,clinic,12.9802929,80.2594242,,,,no,OSM
7823415077,Dr. Niraj Joshi,doctors,13.037733,80.261316,,,,no,OSM
7823415078,Dr. Ubal Dhus,doctors,12.996308,80.263583,,,,no,OSM
7823415079,Sri Saradha Eye Clinic,clinic,12.9854883,80.2590444,,,,no,OSM
7823415080,Dr. G. Venkatakrishnan,doctors,13.039965,80.267691,,,,no,OSM
7823415082,Sankara Dental Clinic,dentist,12.9790152,80.2566246,,,,no,OSM
7823415083,Saanvi Fertility Centre Urology and Stone Centre,hospital,13.0436591,80.2639406,,,,no,OSM
7823415084,The Crescent Hospital,hospital,13.0528771,80.2727865,,,,no,OSM
7823415085,Chennai Urology Clinic,clinic,13.0428357,80.2620778,,,,no,OSM
7823415086,Dr. Sridher,doctors,13.0383898,80.2639336,,,,no,OSM
7823415087,Syma Hospital,hospital,13.0546321,80.2774772,,,,no,OSM
7823415088,Sri Parthasarathy Hospital,hospital,13.0547617,80.2756509,,,,no,OSM
7823415089,Children's Clinic,clinic,13.0374881,80.2678508,,,,no,OSM
7823415090,Sreehareeyam Ayurveda,clinic,12.9787624,80.2580809,,,,no,OSM
7823415091,Ashwini Hospital,hospital,12.9890173,80.2599586,,,,no,OSM
7823415092,Vijayganga Speciality Care,clinic,13.042006,80.2665,,,,no,OSM
7823415093,Homeopathy Clinic,clinic,13.0554568,80.2771022,,,,no,OSM
7823415094,Jayam Polyclinic,clinic,12.9956803,80.2692643,,,,no,OSM
7823776192,Revathi Child Care Clinic,clinic,13.056806,80.199977,,,,no,OSM
7823776193,Aishwarya Clinic,clinic,13.0398827,80.1936068,,,,no,OSM
7823776194,Spn Orthopaedic Clinic,clinic,13.052893,80.20767,,,,no,OSM
7823776195,Clove Dental,dentist,13.0588744,80.2424194,,,,no,OSM
7823776196,R.S. Hospital,hospital,13.0549375,80.2068588,,,,no,OSM
7823776197,Arun Vijaya Hospitals,hospital,13.038873,80.192755,,,,no,OSM
7823776198,Dr. Jayarajah M,doctors,13.055132,80.198496,,,,no,OSM
7823776199,Pranic Health,clinic,13.0624604,80.24239,,,,no,OSM
7823776200,Lakshana Physiotherapy,clinic,13.051432,80.199068,,,,no,OSM
7823776201,R.K Dental Care,dentist,13.0510076,80.1988337,,,,no,OSM
7823776202,Dr. V Mahadevan,doctors,13.0549333,80.1927695,,,,no,OSM
7823776203,Prime Health Care Clinics,clinic,13.0522176,80.2056967,,,,no,OSM
7823776204,Arun Dental Clinic,dentist,13.0478238,80.1892231,,,,no,OSM
7823776205,Swathy Clinic,clinic,13.0488672,80.1938731,,,,no,OSM
7823776206,Jayanthi Skin and Bone Care Clinic,clinic,13.0463215,80.1862225,,,,no,OSM
7823776207,Anub Sivam Clinic,clinic,13.0385615,80.1959333,,,,no,OSM
7823776208,Dr. J. Sarojini Homoeopathic Clinic,clinic,13.0509757,80.2034981,,,,no,OSM
7823776209,C.M. Hospital,hospital,13.0553167,80.2012868,,,,no,OSM
7823776210,Shri Sai Skin and Eye Clinic,clinic,13.0580674,80.1990412,,,,no,OSM
7823776211,Pulmo Care,clinic,13.0489648,80.193165,,,,no,OSM
7823776212,Sucha Eye Cure,clinic,13.0393234,80.1931668,,,,no,OSM
7823776213,Shali Day & Night Hospital,hospital,13.051996,80.204702,,,,no,OSM
7823776214,Ponni Nursing Home,clinic,13.0554821,80.1995444,,,,no,OSM
7823776215,Koncept Hospitals,hospital,13.051051,80.243818,,,,no,OSM
7823776216,Sri Venkateswara Clinic,clinic,13.0484913,80.1895556,,,,no,OSM
7823776217,Diawin Multi Speciality Siddha Hospital,hospital,13.0520108,80.2076585,,,,no,OSM
7823776218,Rose Dental Clinic,dentist,13.041368,80.1959973,,,,no,OSM
7823776219,JKR Clinic,clinic,13.0510747,80.2007559,,,,no,OSM
7823776220,Skin Doctor,clinic,13.0567527,80.2462554,,,,no,OSM
7823776221,G G Hospital,hospital,13.0554543,80.2477343,,,,no,OSM
7823776222,Madhu Clinic,clinic,13.0524295,80.2073763,,,,no,OSM
7823776223,K R S Hospitals,hospital,13.0616711,80.2434943,,,,no,OSM
7823776224,Dr. Rajaram Clinic,clinic,13.0619929,80.2412336,,,,no,OSM
7823776225,Sterling Hospitals,hospital,13.0616367,80.243704,,,,no,OSM
7823776226,GV Dental Clinic,dentist,13.048725,80.193674,,,,no,OSM
7823776227,Lily Shantha Hospital,hospital,13.0516365,80.1939117,,,,no,OSM
7823776228,Dr. A. Aravind Clinic,clinic,13.0381951,80.1924907,,,,no,OSM
7823776229,Chitra Clinic,clinic,13.0542711,80.2078101,,,,no,OSM
7823776230,Rahul Dental Clinic,dentist,13.0490907,80.188543,,,,no,OSM
7823776231,Dr. Maibbar Hospital,hospital,13.0594426,80.2459459,,,,no,OSM
7823776232,Ruban Moses Clinic,clinic,13.0486566,80.1920141,,,,no,OSM
7823776233,Swastik Hospital,hospital,13.0539266,80.1991968,,,,no,OSM
7823776234,Cura Health Plus,clinic,13.0518895,80.1919214,,,,no,OSM
7823776235,Senthil Dental Care,dentist,13.053266,80.2033729,,,,no,OSM
7823776236,Sri Varma and Spine Care Centre,clinic,13.0422476,80.1943253,,,,no,OSM
7823776237,Sri Sai Swamy Clinic,clinic,13.0592237,80.243411,,,,no,OSM
7823776239,American Eye Care Centre,clinic,13.0417465,80.1954994,,,,no,OSM
7823776240,SV Vision & Dental Care,clinic,13.0535204,80.2036821,,,,no,OSM
7823776241,Wings Dental Care,dentist,13.0541919,80.2093081,,,,no,OSM
7823776242,Sakthi Natural Fertility Care,clinic,13.0529876,80.2038876,,,,no,OSM
7823776243,Sakthi Nursing Home,clinic,13.0585803,80.2012135,,,,no,OSM
7823776244,N.R.G. Multispeciality Clinic,clinic,13.0542347,80.1985381,,,,no,OSM
7823776245,Dr. K. Chandralekha,doctors,13.056549,80.196998,,,,no,OSM
7823776246,Standard Hospital,hospital,13.0526943,80.1899425,,,,no,OSM
7823776247,Herba Clinic,clinic,13.0554179,80.1972002,,,,no,OSM
7823776248,Vijay Anand Clinic,clinic,13.0496363,80.1895753,,,,no,OSM
7823776249,Dr. Srinivasan,doctors,13.0593952,80.2437091,,,,no,OSM
7823776250,MM Hospital,hospital,13.0527721,80.191781,,,,no,OSM
7823776251,Lister Metropolis,clinic,13.0519687,80.2062705,,,,no,OSM
7823776252,Dr. R. Muthukumar ENT Surgeon,clinic,13.0519538,80.1922401,,,,no,OSM
7823776253,Arun Hospital,hospital,13.0514652,80.2031882,,,,no,OSM
7823776254,Krishna Geetham Vaidyasala,hospital,13.0538214,80.1989274,,,,no,OSM
7823776255,Bithi Dental Clinic,dentist,13.055137,80.197119,,,,no,OSM
7823776256,Ezhilarasi Clinic,clinic,13.053108,80.199343,,,,no,OSM
7823776257,D` Mas Joint Clinic,clinic,13.0577596,80.2457812,,,,no,OSM
7823776258,Jayam Diabetes Speciality Clinic,clinic,13.0511518,80.1922599,,,,no,OSM
7823776259,Dr. K V Sivakumar,doctors,13.0479235,80.1895242,,,,no,OSM
7823776260,Malar Homeopath Clinic,clinic,13.046215,80.1868077,,,,no,OSM
7823776261,Dr. Balagopal's Dental Clinic,dentist,13.0460858,80.1868088,,,,no,OSM
7824965206,Agm Hospital,hospital,13.0802093,80.2522439,,,,no,OSM
7824965207,Dr. Mohammed Ali,doctors,13.0809396,80.2671246,,,,no,OSM
7824965208,Orient Clinics,clinic,13.0860428,80.2656345,,,,no,OSM
7824965209,Dr. Sambandam Eye Hospital,hospital,13.0886474,80.2416011,,,,no,OSM
7824965210,Dr. Mrs. Renuka Ramakrishnan,doctors,13.0797155,80.2576802,,,,no,OSM
7824965211,Sugumar Hospital,hospital,13.0828855,80.2709938,,,,no,OSM
7824965212,Dr. V.G.K Memorial Homeo Clinic,clinic,13.0881756,80.2418747,,,,no,OSM
7824965213,Ranjith Hospital,hospital,13.0888843,80.2418555,,,,no,OSM
7824965214,Akn Nursing Home,clinic,13.0885541,80.2421118,,,,no,OSM
7824965215,Dr. S. Kalaiselvi and Dr. Raghunathan,doctors,13.0762266,80.2692658,,,,no,OSM
7824965216,Mythili Hospitals,hospital,13.0704319,80.2421491,,,,no,OSM
7824965217,Metropolis Healthcare,clinic,13.07127,80.262082,,,,no,OSM
7824965218,Navakar I Care,clinic,13.0864725,80.2656477,,,,no,OSM
7824965220,Nandita's Clinic,clinic,13.0719723,80.2409391,,,,no,OSM
7824965221,Santosham Chest Hospital,hospital,13.0746638,80.2537976,,,,no,OSM
7824965222,Tune 32 Hospital,hospital,13.0715459,80.2622655,,,,no,OSM
7824965223,Pandalai Hospital,hospital,13.0771575,80.2450769,,,,no,OSM
7824965224,Premier Health Centre,clinic,13.079584,80.257578,,,,no,OSM
7824965225,Centre For Gastro Esophageal Disorders,hospital,13.0786423,80.2540859,,,,no,OSM
7824965226,Dental Icons,dentist,13.0840323,80.2698608,,,,no,OSM
7824965227,Be Well Hospital,hospital,13.0807479,80.2340062,,,,no,OSM
7824965228,Padma Clinic & Nursing Home,clinic,13.076912,80.233925,,,,no,OSM
7824965229,Puttur Kattu Hospital,hospital,13.0812406,80.2506114,,,,no,OSM
7824965230,Vinayagam Clinic,clinic,13.0752787,80.2705092,,,,no,OSM
7824965231,Dr. Ilavarasan Ortho Clinic,clinic,13.074758,80.2555444,,,,no,OSM
7824965232,An-Noor Eye Hospital,hospital,13.0849581,80.2669979,,,,no,OSM
7824965233,Nalam Clinic,clinic,13.0747088,80.2688425,,,,no,OSM
7824965234,Dr. Arjun Thomas Clinic,clinic,13.0755581,80.27068,,,,no,OSM
7824965235,TMM Eye Centre,clinic,13.082126,80.263297,,,,no,OSM
7824965236,Ranganathan Dental Clinic,dentist,13.0732526,80.25379,,,,no,OSM
7824965237,Herbzalive Ayurveda Hospital,hospital,13.0793874,80.2473996,,,,no,OSM
7824965238,Meta Hospital,hospital,13.0826737,80.2705905,,,,no,OSM
7824965239,Vardhman Multispeciality,clinic,13.090224,80.267898,,,,no,OSM
7824965240,Dr. H. Yogish Hospital,hospital,13.0737332,80.2268354,,,,no,OSM
7824965241,Neuro Hospital,hospital,13.0713435,80.2625981,,,,no,OSM
7824965242,Dr. Nitesh Jain,doctors,13.0904206,80.2677974,,,,no,OSM
7824965243,Murugan Hospitals,hospital,13.0833684,80.234299,,,,no,OSM
7824965244,Amrit Hospital,hospital,13.0811868,80.2520834,,,,no,OSM
7824965245,Mercury Hospital,hospital,13.071832,80.260048,,,,no,OSM
7824965246,Naz Unani Hospital,hospital,13.0850158,80.2699983,,,,no,OSM
7824965247,Vembu Clinic,clinic,13.0750341,80.2684334,,,,no,OSM
7824965248,Dr. S. Ayyappan,doctors,13.079104,80.249079,,,,no,OSM
7824965249,S.K. Selvam Hospital,hospital,13.0761303,80.2694819,,,,no,OSM
7824965250,Kavinaya Dental Care,dentist,13.0828434,80.2288176,,,,no,OSM
7824965251,Neuro Mind Care Clinic,clinic,13.079529,80.257646,,,,no,OSM
7824965252,Apollo Hospital,hospital,13.0825738,80.2710331,,,,no,OSM
7824965253,Dr. Sridharan Clinic,clinic,13.0763548,80.267103,,,,no,OSM
7824965254,Kola Saraswathi Agarwal Samaj Health Centre,hospital,13.0813334,80.2553965,,,,no,OSM
7824965255,"Psy Hub, Brain and Behaviour",clinic,13.0821498,80.2331613,,,,no,OSM
7824965256,Dr. Sukumar's Skin Clinic,clinic,13.070275,80.2407506,,,,no,OSM
7824965257,Dr. A Manivannan Clinic,clinic,13.0734625,80.2679228,,,,no,OSM
7824965258,Demo Hospital,hospital,13.0844036,80.2454945,,,,no,OSM
7824965259,Gremaltes Hospital,hospital,13.0793157,80.2290477,,,,no,OSM
7824965260,Srl Hospital,hospital,13.0814203,80.2333756,,,,no,OSM
7824965261,Dr. Sundar's Homoeopathic Clinic,clinic,13.0846937,80.2461467,,,,no,OSM
7824965262,Periyar Maniammai Hospital,hospital,13.0811497,80.2620778,,,,no,OSM
7824965263,Thirty 2 Dental Centre,dentist,13.07947,80.257265,,,,no,OSM
7824965264,Red Cross Hospital,hospital,13.074301,80.267569,,,,no,OSM
7824965265,Kabeer Clinic,clinic,13.0756085,80.2693127,,,,no,OSM
7824965266,Ponmalligai Hospitals,hospital,13.0768584,80.2339377,,,,no,OSM
7825002778,Kamala Sayee Dental Clinic,dentist,13.1231248,80.2164517,,,,no,OSM
7825002779,V S Hospital,hospital,13.1216771,80.2236766,,,,no,OSM
7825002780,Kottakkal Arya Vaidya Sala Clinic,clinic,13.1244332,80.2212904,,,,no,OSM
7825002781,Iyyappa Multi Speciality Hospitals,hospital,13.1160443,80.2454243,,,,no,OSM
7825002782,GK Hospital,hospital,13.113594,80.2394367,,,,no,OSM
7825002783,Sunday Dental Clinic,dentist,13.1247301,80.2194621,,,,no,OSM
7825002784,Obg Health Point,clinic,13.1161848,80.2254809,,,,no,OSM
7825009785,Spectrum Pediatric Therapy,clinic,13.1102844,80.230222,,,,no,OSM
7825009786,Dr. Kleela Hospital,hospital,13.1155627,80.2457851,,,,no,OSM
7825009787,Bluemed Healthcare,hospital,13.1297562,80.2172747,,,,no,OSM
7825009788,Hiran Eye Retina Centre,clinic,13.1178155,80.2278922,,,,no,OSM
7825009789,Annai Eye Clinic,clinic,13.1262133,80.2197712,,,,no,OSM
7825009790,St. Joseph Cluny Hospital,hospital,13.1204837,80.2243993,,,,no,OSM
7825009791,GM Nursing Home,clinic,13.116713,80.2239462,,,,no,OSM
7825009792,Dr. A C Aruldas Hospital,hospital,13.1102652,80.2418486,,,,no,OSM
7825009793,Dr. Rao's Clinic,clinic,13.1293965,80.2161334,,,,no,OSM
7825009794,Child Care Clinic,clinic,13.1224029,80.2123936,,,,no,OSM
7825009795,G.R Clinic,clinic,13.1207062,80.2251062,,,,no,OSM
7825009796,Maayi Nursing Home,clinic,13.1175414,80.2286067,,,,no,OSM
7825009797,Bharathiraja Hospitals,hospital,13.1300779,80.216941,,,,no,OSM
7825009798,Kolathur Multi Speciality and Research Centre,hospital,13.1222839,80.2160951,,,,no,OSM
7825009799,Arul Childs Hospital,hospital,13.1185,80.2258076,,,,no,OSM
7825009800,American Dental Care,clinic,13.1272226,80.2174972,,,,no,OSM
7825009801,Jaya Eye Clinic,clinic,13.116675,80.224138,,,,no,OSM
7825009802,Ramchandras Jussmile Dental Clinic & Dental Implant Centre,dentist,13.1209261,80.214363,,,,no,OSM
7825009803,KCK Hospital,hospital,13.129071,80.2159086,,,,no,OSM
7825009804,Dr. Kamalakannan,doctors,13.1245223,80.2211847,,,,no,OSM
7825009805,Sugar Hospital,hospital,13.121994,80.2236309,,,,no,OSM
7825009806,Dr. Lakshmanan Saravanan,doctors,13.1134209,80.2288966,,,,no,OSM
7825009807,Retteri Kumaran Hospital,hospital,13.129869,80.214109,,,,no,OSM
7825009808,Smileworks Dental Clinic,dentist,13.1206026,80.2140335,,,,no,OSM
7825009809,Elangovan ENT Surgeon,clinic,13.1171076,80.2269961,,,,no,OSM
7825009810,Sastha Dental Clinic,dentist,13.1251973,80.2170726,,,,no,OSM
7825009811,P.R.K Multispeciality Dental Clinic,dentist,13.1190292,80.2161172,,,,no,OSM
7825009812,CPL Dental Clinic,dentist,13.11628,80.224767,,,,no,OSM
7825009813,Cure Plus Clinic,clinic,13.1260152,80.2191464,,,,no,OSM
7825009814,Sugam Ortho Clinic,clinic,13.12251,80.2221769,,,,no,OSM
7825009815,Government Hospital,hospital,13.1093369,80.2312849,,,,no,OSM
7825009816,K.H.M. Hospital,hospital,13.129327,80.2152624,,,,no,OSM
7825009817,Sankar Eye Hospital,hospital,13.1131038,80.2404022,,,,no,OSM
7825009818,Sendoor Clinic,clinic,13.116533,80.2250502,,,,no,OSM
7825009819,Niranjana Hospital,hospital,13.1101477,80.2244516,,,,no,OSM
7825009820,Parvatham Hospital,hospital,13.1148422,80.2441515,,,,no,OSM
7825009821,Akshita Speciality Clinic,clinic,13.1277489,80.2168565,,,,no,OSM
7825009822,Arunz Dental Clinic,dentist,13.1243638,80.2213617,,,,no,OSM
7825009823,U.S. Hospital,hospital,13.1263043,80.2192658,,,,no,OSM
7825009824,Bharani Hospital,hospital,13.1106227,80.2374461,,,,no,OSM
7825009825,GR Clinic,clinic,13.1220895,80.2210295,,,,no,OSM
7825009826,G K Clinic,clinic,13.119731,80.218505,,,,no,OSM
7916557138,Apollo Pharmacy,pharmacy,12.9742292,80.1919715,Medavakkam Main Road,+91 44 2224 5006,Apollo,no,OSM
7953367285,Unnamed,hospital,13.1183857,80.2606286,,,,no,OSM
8099947735,K.M. Nursing Home,hospital,13.0371216,80.2013389,"1/459, 31st St, Sector 6, K. K. Nagar, Chennai, Tamil Nadu 600078",044 4353 0015,,no,OSM
8100644874,Raasi Medicals,pharmacy,13.0275307,80.2102579,"30, S.V.Chidambaram Road, Chennai, Tamil Nadu 600084",044 2471 6153,,no,OSM
8105683179,Military Hospital,hospital,13.0117736,80.1941708,"Mount Poonamalle High Rd, Seven Wells, St.Thomas Mount, Tamil Nadu 600016",,,no,OSM
8108467017,உழைப்பாளி மருத்துவமனை,hospital,13.0487242,80.2036274,Arunachalam St,,,no,OSM
8108591031,KS Bone and Joint Clinic - Ortho,hospital,13.026029,80.212368,"B 50, Gangai Amman Koil St, Jawahar Nagar, West Jafferkhanpet, Chennai, Tamil Nadu 600083",98842 83582,,no,OSM
8108613662,Veekays Pet Care Clinic,clinic,13.0290009,80.2085925,"89, Jawaharlal Nehru Rd, Kasi Estate, West Jafferkhanpet, Chennai, Tamil Nadu 600083",98410 42412,,no,OSM
8108619759,Med Pharmacy,pharmacy,13.0287197,80.212303,"Gangai Amman Koil St, Barathi Block, VSM Garden, West Jafferkhanpet, Chennai, Tamil Nadu 600083",81444 60555,,no,OSM
8108621642,Ashok Pharmacy,pharmacy,13.02906,80.2086055,,72990 91291,,no,OSM
8111861614,Shens Multi-Speciality Hospital,hospital,13.0318828,80.2103124,"40, 11th Ave, Mettuppalayam, Ashok Nagar, Chennai, Tamil Nadu 600083",044 2471 5000,,no,OSM
8111869852,Ashok Nagar Pharmacy,pharmacy,13.0312946,80.2116224,"28, 12th St, Mettuppalayam, Ashok Nagar, Chennai, Tamil Nadu 600083",,,no,OSM
8197934476,Sanjeevani Ayurvedic Hospital,hospital,12.9120483,80.2489789,Gangai Amman Kovil Street,9500071332,,no,OSM
8261017892,Sham's Rheumatic Care Centre,clinic,13.0388056,80.2010012,"Door No. - 107, Lakshamana Swamy Salai, Next to Punjab National Bank, K. K Nagar West",,,no,OSM
8494474317,Unnamed,pharmacy,12.9949059,80.2677253,,,,no,OSM
8534551385,COVID Vaccination Center,vaccination_centre,13.0157487,80.2176066,,,King Institute of Preventive Medicine and Research,no,OSM
8562785541,Proscans & Labs,laboratory,12.9719712,80.1911113,,,,no,OSM
8573649179,Aarthi Scans & Labs,laboratory,12.9758423,80.2193076,1st Main Road,+917305079758,,no,OSM
8616702592,Lister Metropolis,laboratory,12.9760297,80.2204435,,,,no,OSM
8631827335,Unnamed,dentist,12.9826441,80.2253521,,,,no,OSM
8637836694,Rajesh Medicals,pharmacy,12.9824657,80.2237405,,,,no,OSM
8639896900,Prashanth Hospitals,hospital,12.9784544,80.2214698,Velachery Main Road,+91 44 2243 9494;+91 44 4680 5544;+91 82962 63415,,no,OSM
8645780200,Rasi Medicals,pharmacy,12.9765915,80.2225954,Varadarajapuram,,,no,OSM
8935514615,Geri care hospital,hospital,13.0439323,80.2407095,,,,no,OSM
9263288722,Manimozhi Medicals,yes,13.0549752,80.1862894,Kamarajar High Road,,,no,OSM
9407626811,Neuberg Diagnostics,laboratory,12.9859329,80.1910972,3rd Main Road,+91 44 41412222;+91 44 4854 8031,Neuberg Ehrlich Clinical Laboratories,no,OSM
9407641485,Neuberg Diagnostics Lab,laboratory,12.9769793,80.1832666,MGR Road,+91 88388 06309,Neuberg Ehrlich Clinical Laboratories,no,OSM
9491447055,Vaani pharmacy,pharmacy,12.9738116,80.1897991,,,,no,OSM
9502013722,Government Mini Clinic,clinic,12.9780615,80.1811597,,,Government of Tamil Nadu,no,OSM
9538903560,Unnamed,dentist,12.907488,80.2286126,,,,no,OSM
9676613144,Sparsh Physiotherapy & Sport Injury Clinic,physiotherapist,12.9728654,80.1907063,பாலாஜி நகர் 7வது தெரு,+91 88706 34783,,no,OSM
9905166209,Apollo Pharmacy,pharmacy,12.97952,80.1830158,,,Apollo Pharmacy,no,OSM
9905166214,Sunshine Pharmacy,pharmacy,12.978187,80.1831606,,,,no,OSM
9905201923,MedPlus,pharmacy,12.9754445,80.1832156,,,MedPlus,no,OSM
9964211104,Pratibha Dental Clinic,dentist,13.058583,80.2434046,,,Dr. Logachander,no,OSM
9980280808,MedPlus,pharmacy,13.1279965,80.2015444,,,,no,OSM
9997936353,Apollo Pharmacy,pharmacy,12.9818118,80.2214223,,,,no,OSM
10013621157,Sri sai baba,dentist,13.1236904,80.2014984,,,,no,OSM
10013621163,Trident medicare center,clinic,13.1245764,80.201478,,,,no,OSM
10103037610,Dr. Hidayathullah,doctors,13.094975,80.2865618,,,,no,OSM
10106243487,Fakhri Dental Clinic,dentist,13.0937726,80.287202,,,,no,OSM
10115467419,Azeez Medicals,pharmacy,13.0957863,80.289305,,,,no,OSM
10115689799,City Medicals,pharmacy,13.0963862,80.2890778,,,,no,OSM
10116132966,S.S.R. Clinic,doctors,13.0959434,80.2878228,,,,no,OSM
10156175389,Chindamani Dentral Centre,dentist,13.0984314,80.2867438,,,,no,OSM
10208798641,Dr. S. Aadil Ahamed,dentist,13.0964031,80.2902257,,,,no,OSM
10208858002,Sri Lakshmi Clinic,clinic,13.0969386,80.2875876,,,,no,OSM
10208901306,Alahu Pharmacy,pharmacy,13.0966093,80.2896858,,,,no,OSM
10208901309,S. R. Dental Care,dentist,13.0965427,80.2896739,,,,no,OSM
10261422409,Women And Children Foundation Hospital,hospital,13.1180276,80.2126037,Poompuhar Nagar 1st Main Road,"04425508210, 8939957777, 8939917777",Women And Children Foundation Limited,no,OSM
10268908442,Apollo Pharmacy,pharmacy,12.9985283,80.2674654,,,,no,OSM
10268908445,Maharaja Medicals,pharmacy,12.9983979,80.2675071,,,,no,OSM
10268908448,Shobika Pharmacy,pharmacy,12.9982648,80.2675508,,,,no,OSM
10271805421,Frame of Mind - SCARF Psychiatric Hospital,hospital,13.0972767,80.1982422,"N Main Rd, Kailash Colony, Sector A, Anna Nagar West Extension, Chennai, Tamil Nadu 600101",+919150587361;04426151073; 04426153971,,no,OSM
10294576078,Vasantha Memorial Cancer Centre,hospital,13.040756,80.2146876,"35th Street, Opp JFA Showroom, Ashok Nagar",+91 9791048379,,no,OSM
10574108889,Right Pharmacy,pharmacy,13.1020684,80.2762181,,,,no,OSM
10574142261,Rajeshwar Medicals,pharmacy,13.1023245,80.2775936,,,,no,OSM
10583922905,K. S. Medicals,pharmacy,13.1010225,80.2922949,,,,no,OSM
10584063733,MAS Medicals,pharmacy,13.0963175,80.285492,,,,no,OSM
10595586116,London Medicals,pharmacy,13.0996018,80.2885735,,,,no,OSM
10610484412,Madhan homoeo clinic,doctors,12.9917215,80.2000971,Lakeview Street,04422453333,,no,OSM
10742375542,Gangasri Dental Clinic,dentist,13.098707,80.2796729,,,,no,OSM
10742375552,Dr. V. Dilip Jain,doctors,13.0987204,80.2796089,,,,no,OSM
10742379758,Shree Ortho Clinic,doctors,13.0992167,80.2800372,,,,no,OSM
10742505933,The Homeopathic Centre,alternative,13.0892841,80.2845422,,,,no,OSM
10742578789,Mahaveer Pharmacy,pharmacy,13.0998732,80.2801353,,,,no,OSM
10786832410,Lakshmi Pain and Palliative CareTrust,yes,13.0793203,80.2560416,Poonamallee High Road,7305625469,,no,OSM
10798116925,Malick Medicals,pharmacy,13.0886282,80.2821469,,,,no,OSM
10852482368,Shriram Dental Clinic,dentist,13.0404708,80.2592658,,,,no,OSM
10885759469,Arrahman Medicals and Surgicals,pharmacy,13.1047093,80.2846756,,,,no,OSM
10892974738,Taj Medicals,pharmacy,13.1041557,80.2845635,,,,no,OSM
10892974743,Sree Sai Medicals,pharmacy,13.104237,80.2845792,,,,no,OSM
10895930390,Shri Rajeshwar Medical,pharmacy,13.094219,80.2801324,,,,no,OSM
10933186980,Gem Medicals,pharmacy,13.0943423,80.2844478,,,,no,OSM
10933382910,Sharma Medicals,pharmacy,13.0980692,80.2800895,,,,no,OSM
10933382976,Sri Medicare,doctors,13.0967999,80.2800251,,,,no,OSM
10933457922,MedPlus,pharmacy,13.0950834,80.280902,,,,no,OSM
10933457932,Pooja Medical Store,pharmacy,13.0951375,80.2805799,,,,no,OSM
10933495005,Sri Lakhsmi Medical,pharmacy,13.0985389,80.2829543,,,,no,OSM
10933682445,Raj Pharma,pharmacy,13.0966762,80.2798882,,,,no,OSM
10933682465,MedPlus,pharmacy,13.0971475,80.2799116,,,,no,OSM
10933682482,Kumaran Physiotherapy & Pain Relief Clinic,clinic,13.0974459,80.2799297,,,,no,OSM
10933682492,Maruti Dental Clinic,dentist,13.0976149,80.2799422,,,,no,OSM
10933682513,Sree Krishna Dental Clinic,dentist,13.0980336,80.2798983,,,,no,OSM
10933682543,Shaarave Pharmacy,pharmacy,13.0983705,80.2799933,,,,no,OSM
10933682545,Shub Pharmacy,pharmacy,13.0984538,80.2800047,Mint Street,,,no,OSM
10933682615,Raj Pharmacy,pharmacy,13.0965461,80.279267,,,,no,OSM
10933682616,Mahaveer Health Care Services,clinic,13.0965132,80.279272,,,,no,OSM
10933795459,Shri Soni Medicals,pharmacy,13.0946147,80.279622,,,,no,OSM
10933806238,G.T. Clinic,clinic,13.0958069,80.2798213,,,,no,OSM
10933806243,Lal Medicals,pharmacy,13.0958575,80.2798307,,,,no,OSM
10933856332,Aakash Dental Care,dentist,13.0945066,80.2792587,,,,no,OSM
10943490889,Renuka Medicals,pharmacy,13.0966294,80.2789801,,,,no,OSM
10948434909,Unnamed,clinic,13.1225226,80.209299,,,,no,OSM
10951520437,Rajeshwar Medical,pharmacy,13.0949718,80.2815594,,,,no,OSM
10963479044,Eswari Medicals,pharmacy,13.1024943,80.2843568,,,,no,OSM
10967199343,J.K. Medicals,pharmacy,13.098293,80.2804979,,,,no,OSM
10967203527,Sakthi Clinic - Dr. B. Palani,clinic,13.0974018,80.2806005,,,,no,OSM
10967203528,Akshathaa Medical,pharmacy,13.0973731,80.2805193,,,,no,OSM
10967301671,Prem Medicals,pharmacy,13.0976163,80.2844014,,,,no,OSM
10973661157,Mahaveer Medicals,pharmacy,13.0926295,80.2798674,,,,no,OSM
11071527624,Apollo Pharmacy,pharmacy,13.0853533,80.2128093,,,,no,OSM
11071527636,KHM,hospital,13.084556,80.2130458,,,,no,OSM
11395977107,Easwar medicals,pharmacy,13.0414646,80.2217887,,,,no,OSM
11395977108,Apollo Pharmacy,pharmacy,13.0439094,80.2223127,,,,no,OSM
11395977109,Apollo Pharmacy,pharmacy,13.0467824,80.2263207,,,,no,OSM
11395977110,Jayalaksmi medicals,pharmacy,13.0454549,80.2258794,,,,no,OSM
11395977112,MedPlus,pharmacy,13.0427579,80.2252034,,,,no,OSM
11395977113,Velavan medical shop,pharmacy,13.0426041,80.2251597,,,,no,OSM
11397678677,Apollo Emergency Medical Centre,clinic,13.0826233,80.2752345,,,Apollo Hospitals,no,OSM
11397678678,Apollo,pharmacy,13.0826287,80.2752804,,,Apollo Hospitals,no,OSM
11428732669,Unnamed,clinic,13.0061507,80.2576709,,,,no,OSM
11496646532,M.K. Dental Clinic,dentist,13.1021903,80.2819289,,,,no,OSM
11496646587,K.M Medicals,pharmacy,13.1017714,80.2821281,,,,no,OSM
11505503013,Sugam Medicals,pharmacy,13.1026634,80.2798772,,,,no,OSM
11508069598,SIVA,pharmacy,13.1317646,80.2487015,,,,no,OSM
11513226268,Ameer Medicals,pharmacy,13.1003427,80.2837444,,,,no,OSM
11513712397,Broadway Dental & Face Care,dentist,13.0993143,80.2866002,,,,no,OSM
11513795735,Raghavendra Medicals,pharmacy,13.1029082,80.2842053,,,,no,OSM
11513816703,Ram Dental Clinic,dentist,13.1014448,80.2832858,,,,no,OSM
11515688969,Unnamed,clinic,12.9191067,80.1956242,,+9173388844156;+9173388844157;04448504155,,no,OSM
11515689869,Unnamed,clinic,12.9191663,80.1958552,,+919884459832,,no,OSM
11517017883,Dentist,dentist,12.8926234,80.1839373,,,,no,OSM
11533319916,Globe Dental Care,dentist,13.1000792,80.2848974,,,,no,OSM
11533446513,Rithick Medicals,pharmacy,13.0994602,80.2836839,,,,no,OSM
11536809270,Unnamed,pharmacy,12.8901967,80.1845034,,,,no,OSM
11536809571,Unnamed,doctors,12.8901317,80.1845018,,,,no,OSM
11536809669,Unnamed,pharmacy,12.8897214,80.1846576,,,,no,OSM
11679595256,Jananam fertility centre,hospital,12.9569147,80.2513405,"Kazura Garden, 1st Street",,,no,OSM
11708347382,Sahar's Rehab,physiotherapist,13.0022797,80.2588351,,,,no,OSM
11721889433,Lister Metropolis,laboratory,13.001715,80.259994,,,,no,OSM
11804254199,Dental College & Hospital,hospital,12.8705153,80.2233736,,,,no,OSM
11832128249,Neroor Eye Centre,doctors,13.0235693,80.2626733,,,,no,OSM
11832500011,RR Pharmacy,pharmacy,13.0374893,80.2670713,,,,no,OSM
12108813090,Apollo Pharmacy,pharmacy,12.8784555,80.2158837,,,,no,OSM
12108828535,MedPlus,pharmacy,12.8784034,80.2163126,,,,no,OSM
12146055740,"Commissioner of Police office, Greater chennai Police",hospital,13.081276,80.2631177,,,,no,OSM
12243900260,Building bridges therapeautic center,occupational_therapist,13.0897323,80.2147011,,,,no,OSM
12367559381,Unnamed,hospital,13.0920988,80.2588062,,,,no,OSM
12378706312,Dr Bala's Skin clinic,hospital,12.9831959,80.2013573,Vanalar Street,,Dr Balakumatan,no,OSM
12494690201,MedPlus,pharmacy,13.070634,80.2318455,Vaidhanathan Street,,,no,OSM
12497428101,Saffra Medicals,pharmacy,13.0720446,80.230545,Kanthan Street,,,no,OSM
12547945101,Daksha Pharmacy,pharmacy,13.0722669,80.2303466,Venkatachalabathy Street,,,no,OSM
12548054602,The Hive Fertility Centre,clinic,13.0728153,80.2524798,Mayor Ramanathan Road (Spur Tank Road),,,no,OSM
12556128702,Arthritis & Rheumatism Centre,doctors,13.058393,80.2417214,Jambulingam Street,,,no,OSM
12560767886,Unnamed,hospital,12.9809491,80.1871116,,,,no,OSM
12568243303,Baby Child Clininc,clinic,12.8902304,80.1844991,,,,no,OSM
12568243304,Dr. S. Satish Kumar M.D.S,clinic,12.8900211,80.1845425,,,,no,OSM
12571350701,Star Pharmacy Adambakkam,pharmacy,12.9913691,80.2056404,Kakkan Nagar Main Road,,Star Pharmacy,no,OSM
12571366102,Star Pharmacy,pharmacy,12.990467,80.2101864,TNHB Main Road,,Star Pharmacy,no,OSM
12611351201,Just Kids Child Cliinc,clinic,12.9130938,80.1918435,,,,no,OSM
12611351301,Royal Diagnostic Centre,doctors,12.9131225,80.1918645,,04422770873;962076884;9940458365;8608174550;6380237061,,no,OSM
12619467462,Vadivelu Hospital,hospital,13.1002212,80.2400853,,,,no,OSM
12640713376,Capstone Clinic,clinic,13.0531057,80.2435995,,,,no,OSM
12640732029,Medplus,pharmacy,13.0497595,80.2404197,,,,no,OSM
12640732242,Muthu Pharmacy,pharmacy,13.0506559,80.2403622,,,,no,OSM
12640769301,The Speech Care Clinic,speech_therapist,13.0536582,80.2446045,,,,no,OSM
12698235802,Apollo Pharmacy,pharmacy,12.9130545,80.1920824,,,,no,OSM
13039283368,Tamil medicals,pharmacy,13.014314,80.2313444,,,,no,OSM
13039283371,Cure blue pharmacy,pharmacy,13.0149158,80.229668,,,,no,OSM
13096237915,Iswarya Fertility Center,hospital,13.0064894,80.2504829,,,,no,OSM
13127975755,JD Dental and Implant center,dentist,13.0124158,80.2272818,,,,no,OSM
13127975756,முத்து பார்மஸி,pharmacy,13.0124007,80.2273112,,,,no,OSM
13137353953,Apollo pharmacy,pharmacy,13.0499297,80.2397101,,,,no,OSM
13142131701,Dr Abirami's skincare clinic,clinic,13.0149516,80.2307333,,,,no,OSM
13155026101,Good Shepard hospital,hospital,12.9810842,80.2343492,Taramani Link Road,,,no,OSM
13184761701,Hariharan ENT Clinic,clinic,12.9161702,80.1921511,,+91 76999 26991,,no,OSM
13184761801,Dr. R.Suresh Child Care Clinic,clinic,12.9159912,80.1921519,,,,no,OSM
13184762001,Madila Clinic,clinic,12.9160421,80.1921398,,,,no,OSM
13185226534,Apollo Pharmacy,pharmacy,13.0067683,80.256244,,,,no,OSM
13185226538,Apollo Diagnostics,laboratory,13.0063692,80.256188,,,,no,OSM
13253593003,Athena Diagnostics,laboratory,13.0322096,80.2531801,,,,no,OSM
13253593101,Jothi Eye Clinic,doctors,12.9981354,80.2557443,,,,no,OSM
13310799901,Sunitha medicals,pharmacy,13.0079436,80.2633615,,,,no,OSM
13344518801,Mediscan,laboratory,13.0425178,80.2747873,,,,no,OSM
13347546401,BRS Medicals,pharmacy,13.0436029,80.2743744,,,,no,OSM
13398034602,Elite Physiotherapy,physiotherapist,13.0148732,80.2296577,,+917708593109,,no,OSM
13401498982,SRI CHAKRA SCANS,clinic,13.1295572,80.2145746,,,,no,OSM
27618339,Rajiv Gandhi Government General Hospital,hospital,13.0808972,80.2773284,,,,no,OSM
28345285,Stanley Medical College and Hospital,hospital,13.1063871,80.2841452,,,,no,OSM
28404807,Unnamed,hospital,13.005416,80.2396935,,,,no,OSM
28493363,Sri Ramachandra Institute of Higher Education and Research,hospital,13.0410329,80.1425261,,,,no,OSM
29046387,Tt Ranganathan Clinical Research Foundation,hospital,12.9923667,80.2550102,,,,no,OSM
29046742,IMPCOPS Traditional Hospital,hospital,12.9930805,80.2572794,,,,no,OSM
29115463,எழும்பூர் அரசு மருத்துவமனை,hospital,13.072653,80.2583254,,,,no,OSM
29116157,Egmore Eye Hospital,hospital,13.0702235,80.2599829,,,,no,OSM
30973308,ESI Hospital,hospital,13.0950575,80.2397713,,,Employees' State Insurance,no,OSM
32896904,Cantonment General Hospital,hospital,13.0095756,80.1950144,,,,no,OSM
34097016,Communicable Diseases Hospital,hospital,13.1287163,80.2925206,,,,no,OSM
35312695,புனித இஸ்பேல் மருத்துவமனை,hospital,13.0384509,80.2622475,,,,no,OSM
47416302,Stanley Medical College and Hospital,hospital,13.1042167,80.283195,,,,no,OSM
48132798,Madras Pinjrapole Veterinary Home,hospital,13.0987536,80.2485502,,,,no,OSM
48737654,Unnamed,hospital,13.0978041,80.2457004,,,,no,OSM
48738664,Railway Hospital,hospital,13.1016597,80.232331,,,,no,OSM
48741356,ICF Hospital,hospital,13.0998913,80.2138748,,,,no,OSM
48753841,Anna Nagar Government Hospital,hospital,13.0954447,80.2197148,,,,no,OSM
59359967,Unnamed,hospital,13.0933659,80.2403777,,,,no,OSM
100857284,"அறிஞர் அண்ணா அரசு இந்திய,மருத்துவமனை,அரும்பாக்கம்,சென்னை-106",hospital,13.0772596,80.2187728,Anna Arch Road,,,no,OSM
125180726,Govt Peripheral Hospital KK Nagar,hospital,13.034006,80.2078405,,,,no,OSM
131961841,Ayurveda Hospital,hospital,12.9705162,80.2601162,,,,no,OSM
132073184,Apollo Hospital,hospital,12.9630574,80.2457399,,,,yes,OSM
133862451,Prashanth Hospitals,hospital,13.0695736,80.2363218,,,,yes,OSM
156240637,Udhi Eye Hospitals,hospital,13.0391602,80.2571596,,,,no,OSM
156250603,Agarwal Eye Hospital,hospital,13.0460706,80.2557204,,,,no,OSM
156250608,Aswene Soundarya Hospital,hospital,13.044707,80.256162,,,,no,OSM
170104584,Global Hospitals,hospital,13.0098114,80.2515183,,,,no,OSM
178747899,Government Rsrm Lying Hospital,hospital,13.1090673,80.288719,,,,no,OSM
181579506,Health Centre,hospital,13.0136347,80.2393232,,,,no,OSM
188445646,Apollo Clinic & Pharmacy,hospital,13.0360972,80.2572646,,,,no,OSM
209413524,Trinity Acute Care,hospital,13.0385579,80.2578675,,,,no,OSM
